$GPGGA,102839.00,3851.36001,N,00007.81783,E,2,08,1.27,-2.1,M,49.1,M,,0000*79
$IIMWV,045.5,R,008.0,N,A*31
$IIVHW,024.8,T,029,M,003.5,N,006.4,K*4A
$IIHDM,029,M*37
$PNKEP,03,50.0,122.4,0.0*5D
$IIMTW,040.0,C*27
$GPRMC,102840.00,A,3851.36116,N,00007.81846,E,4.579,23.98,230219,,,D*58
!AIVDM,1,1,,B,4028j5iv<cbLWww0L@FK3GA02HG=,0*79
!AIVDM,1,1,,A,4028jJQv<cbLWOvgchF7LLw02<4G,0*17
$IIRSA,000,A,,V*67
$IIMWV,053.5,R,009.8,N,A*3F
$IIVHW,023.9,T,029,M,003.7,N,006.8,K*42
$IIRSA,000,A,,V*67
$GPGLL,3851.36116,N,00007.81846,E,102840.00,A,D*6B
!AIVDO,1,1,,,B3GQ34P0;`09RlUSg<h?3wl5oP06,0*27
$IIVLW,12465.8,N,0001.01,N*41
$IIVLW,12465.9,N,0001.01,N*40
$IIRSA,000,A,,V*67
$IIMWV,046.5,R,008.4,N,A*36
$IIMTW,040.0,C*27
$IIVHW,024.3,T,029,M,004.0,N,007.4,K*42
$IIMTW,040.0,C*27
$PNKEP,03,50.0,139.8,0.0*5B
$GPGLL,3851.36235,N,00007.81916,E,102841.00,A,D*6C
$IIHDM,029,M*37
!AIVDM,1,1,,B,13cecw002d02SG`F>l014hoD08HR,0*65
$IIMWV,047.5,R,008.4,N,A*37
$IIRSA,000,A,,V*67
$IIVHW,024.3,T,029,M,003.6,N,006.6,K*40
$GPRMC,102842.00,A,3851.36349,N,00007.81984,E,4.564,23.53,230219,,,D*56
$IIMTW,040.0,C*27
$IIHDM,028,M*36
$PNKEP,03,50.0,125.9,0.0*57
!AIVDM,1,1,,A,13Ef2R000100Qw4F>NltBD5D08Hl,0*01
!AIVDM,1,1,,B,13d7Hr0wCC08mudFcNIioAS>05Ah,0*59
$IIMWV,070.78,T,006.71,N,A*33
$IIHDM,028,M*36
$IIDBT,067.1,f,020.13,M,,F*0F
$IIVHW,023.5,T,028,M,003.9,N,007.2,K*4A
$IIMTW,040.0,C*27
$IIMTW,040.0,C*27
$IIHDM,028,M*36
!AIVDO,1,1,,,B3GQ34P0;H09RvUSg>t>KwmUoP06,0*13
$IIMWV,076.64,T,007.37,N,A*3B
$IIHDM,028,M*36
$GPRMC,102844.00,A,3851.36588,N,00007.82115,E,4.628,23.51,230219,,,D*51
$IIDBT,066.8,f,020.4,M,,F*31
$IIVHW,023.5,T,028,M,003.8,N,007.0,K*49
!AIVDO,1,1,,,B3GQ34P0;`09S25Sg?d>gwn5oP06,0*40
$IIMTW,040.0,C*27
$IIRSA,000,A,,V*67
$IIMWV,070.63,T,006.55,N,A*3F
$IIHDM,028,M*36
$GPGGA,102845.00,3851.36707,N,00007.82183,E,2,08,1.27,-1.6,M,49.1,M,,0000*72
!AIVDM,1,1,,B,13FB780000OwC@RFD3hI:B1L08JS,0*41
!AIVDO,1,1,,,B3GQ34P0;`09S55Sg@L>kwnUoP06,0*7C
$IIVHW,023.6,T,028,M,003.9,N,007.2,K*49
$IIMTW,040.0,C*27
$IIHDM,028,M*36
$IIMWV,068.07,T,006.45,N,A*35
$GPRMC,102846.00,A,3851.36822,N,00007.82248,E,4.545,23.72,230219,,,D*5C
$GPGGA,102846.00,3851.36822,N,00007.82248,E,2,08,1.27,-1.5,M,49.1,M,,0000*7E
!AIVDM,1,1,,B,4028j:Av<cbLe00gBdF:4iA00<3G,0*31
!AIVDM,1,1,,B,D028j:AMdffp,0*13
$IIHDM,028,M*36
$IIVHW,023.7,T,028,M,004.1,N,007.5,K*40
$IIMTW,040.0,C*27
$IIHDM,028,M*36
$IIMWV,077.56,T,006.95,N,A*32
$GPRMC,102847.00,A,3851.36941,N,00007.82315,E,4.628,23.53,230219,,,D*5B
!AIVDO,1,1,,,B3GQ34P0;H09S8USgA8>owo5oP06,0*29
$IIHDM,028,M*36
$IIVHW,023.5,T,028,M,004.0,N,007.4,K*42
$IIMTW,040.0,C*27
$GPGLL,3851.36941,N,00007.82315,E,102847.00,A,D*68
$IIHDM,029,M*37
$GPRMC,102848.00,A,3851.37058,N,00007.82381,E,4.490,23.93,230219,,,D*54
$IIMWV,044.5,R,008.3,N,A*33
!AIVDO,1,1,,,B3GQ34P0;`09S<5SgAp>gwoUoP06,0*45
$IIDBT,067.4,f,020.22,M,,F*08
$IIVHW,023.9,T,029,M,003.7,N,006.8,K*42
$IIRSA,000,A,,V*67
$IIMTW,040.0,C*27
$PNKEP,03,50.0,129.4,0.0*56
!AIVDM,1,1,,A,13cecw002d02SMpF>m8Q4hoP00SN,0*0E
$IIHDM,028,M*36
$IIMWV,071.10,T,006.10,N,A*3B
$GPGGA,102849.00,3851.37174,N,00007.82447,E,2,08,1.27,-1.2,M,49.1,M,,0000*74
$IIDBT,068.0,f,020.40,M,,F*07
$IIRSA,000,A,,V*67
$GPGLL,3851.37174,N,00007.82447,E,102849.00,A,D*69
$IIVHW,023.0,T,028,M,003.4,N,006.2,K*43
!AIVDO,1,1,,,B3GQ34P0;H09SBUSgCD>OwpUoP06,0*72
$IIMWV,072.16,T,006.70,N,A*38
$IIHDM,028,M*36
$IIMTW,040.0,C*27
$IIDBT,068.5,f,020.55,M,,F*06
$IIVHW,023.0,T,028,M,004.1,N,007.5,K*47
$IIHDM,028,M*36
$IIMTW,040.0,C*27
$GPGLL,3851.37293,N,00007.82510,E,102850.00,A,D*68
$PNKEP,03,50.0,128.3,0.0*50
$IIMWV,047,R,008.4,N,A*2C
$IIHDM,028,M*36
$IIDBT,068.5,f,020.55,M,,F*06
$GPRMC,102851.00,A,3851.37409,N,00007.82575,E,4.569,23.33,230219,,,D*5C
$GPGGA,102851.00,3851.37409,N,00007.82575,E,2,08,1.27,-1.0,M,49.1,M,,0000*70
$IIRSA,000,A,,V*67
!AIVDM,1,1,,A,13EbpMWP00P0Q3<F>P400?wV20SA,0*15
!AIVDM,1,1,,A,H3P=ovTTCBD59e8j92>o000`8220,0*55
$IIMWV,071.17,T,006.98,N,A*3C
$IIHDM,029,M*37
!AIVDO,1,1,,,B3GQ34P0;`09SI5SgDl>WwqUoP06,0*07
$IIDBT,067.7,f,020.31,M,,F*09
$IIVHW,023.3,T,029,M,003.6,N,006.6,K*47
$GPGGA,102852.00,3851.37527,N,00007.82640,E,2,08,1.27,-1.0,M,49.1,M,,0000*7B
$IIHDM,029,M*37
$IIMTW,040.0,C*27
$IIMWV,068.50,T,006.38,N,A*3D
!AIVDO,1,1,,A,B3GQ34P0;`09SL5SgET>Swr5oP06,0*1D
$IIHDM,029,M*37
$GPRMC,102853.00,A,3851.37643,N,00007.82703,E,4.519,22.83,230219,,,D*5C
$IIDBT,067.1,f,020.13,M,,F*0F
$IIVHW,022.8,T,029,M,003.8,N,007.0,K*44
$IIHDM,028,M*36
$IIMTW,040.0,C*27
$IIMWV,050,R,008.5,N,A*2B
$GPGLL,3851.37643,N,00007.82703,E,102853.00,A,D*62
!AIVDO,1,1,,,B3GQ34P0;H09SO5SgF@>CwrUoP06,0*10
!AIVDM,1,1,,B,1018lEWP0000QinF>H4h0?w`1t00,0*64
!AIVDM,1,1,,A,13EdA8WP00P0PstF>Og00?wd20R3,0*53
$IIRSA,000,A,,V*67
$IIVHW,022.6,T,028,M,003.8,N,007.0,K*4B
$GPGLL,3851.37760,N,00007.82768,E,102854.00,A,D*68
$IIMWV,069.67,T,006.61,N,A*34
$PNKEP,03,50.0,118.9,0.0*59
$IIRSA,000,A,,V*67
$IIMTW,040.0,C*27
$IIRSA,000,A,,V*67
$GPGLL,3851.37880,N,00007.82829,E,102855.00,A,D*62
!AIVDM,1,1,,A,13FB780000OwC@RFD3h9:B1h0HPK,0*64
$IIVHW,022.2,T,028,M,004.1,N,007.5,K*44
$IIMTW,040.0,C*27
$IIRSA,000,A,,V*67
$IIMWV,048.5,R,008.6,N,A*3A
!AIVDO,1,1,,,B3GQ34P0;`09SUUSgGh=swsUoP06,0*59
!AIVDM,1,1,,A,B3P>O0000808ATUS`S;Q3wsUoP06,0*57
!AIVDM,1,1,,A,D028j:@flffp,0*32
$GPGGA,102856.00,3851.38000,N,00007.82894,E,2,08,1.27,-0.7,M,49.1,M,,0000*71
$IIRSA,000,A,,V*67
$IIVHW,022.8,T,029,M,003.5,N,006.4,K*4C
$IIMTW,040.0,C*27
$IIHDM,029,M*37
$IIMWV,071.73,T,006.83,N,A*34
$PNKEP,03,50.0,109.6,0.0*56
$GPRMC,102857.00,A,3851.38116,N,00007.82962,E,4.598,23.12,230219,,,D*59
!AIVDM,1,1,,B,H3F9rm1@tpEB0=D59@v22222220,2*3F
$IIRSA,000,A,,V*67
$IIDBT,068.9,f,020.67,M,,F*0B
$IIVHW,023.1,T,029,M,003.9,N,007.2,K*4F
$IIMTW,040.0,C*27
$IIMWV,042,R,008.4,N,A*29
$IIHDM,029,M*37
$GPGLL,3851.38116,N,00007.82962,E,102857.00,A,D*67
!AIVDO,1,1,,,B3GQ34P0;`09Sd5SgI@>OwtUoP06,0*16
$IIRSA,000,A,,V*67
$IIVHW,022.8,T,028,M,004.0,N,007.4,K*4E
$IIMTW,040.0,C*27
$GPGGA,102858.00,3851.38235,N,00007.83026,E,2,08,1.27,-0.7,M,49.1,M,,0000*7B
!AIVDM,1,1,,B,B3GQ3L000808mrUSU5GQ3wu5oP06,0*6F
$IIMWV,058.5,R,008.8,N,A*35
!AIVDO,1,1,,,B3GQ34P0;p09SgUSgJ0>Gwu5oP06,0*7F
$IIHDM,029,M*37
$PNKEP,03,50.0,113.3,0.0*58
$GPGGA,102859.00,3851.38350,N,00007.83095,E,2,08,1.27,-0.6,M,49.1,M,,0000*71
$IIHDM,029,M*37
$IIDBT,068.1,f,020.43,M,,F*05
$IIVHW,024.2,T,029,M,003.6,N,006.6,K*41
$IIMWV,040,R,008.6,N,A*29
$IIRSA,000,A,,V*67
$IIMTW,040.0,C*27
$GPGLL,3851.38350,N,00007.83095,E,102859.00,A,D*69
!AIVDO,1,1,,,B3GQ34P0;H09Sk5SgJd??wuUoP06,0*66
!AIVDM,1,1,,A,4028jJQv<cbLsOvgcbF7LLw02800,0*4E
$IIHDM,029,M*37
$IIDBT,067.4,f,020.22,M,,F*08
$IIVHW,022.9,T,029,M,003.8,N,007.0,K*45
$IIMWV,055,R,008.8,N,A*23
$IIHDM,029,M*37
$PNKEP,03,50.0,118.9,0.0*59
$IIMTW,040.0,C*27
$GPGGA,102901.00,3851.38576,N,00007.83228,E,2,08,1.27,-0.9,M,49.1,M,,0000*74
!AIVDM,1,1,,A,13cecw002d02S`PF>o814Pn00<19,0*21
$IIHDM,029,M*37
$IIVHW,024.5,T,029,M,003.8,N,007.0,K*4F
$IIMTW,040.0,C*27
$IIMWV,070.52,T,006.77,N,A*3D
$IIHDM,029,M*37
$PNKEP,03,50.0,118.9,0.0*59
$GPRMC,102902.00,A,3851.38691,N,00007.83294,E,4.545,24.10,230219,,,D*56
!AIVDM,1,1,,B,H3F9rm4U1=3000000000000p0020,0*12
!AIVDM,1,1,,A,13Ef2R000100Qw2F>NmoGl440<1S,0*03
$IIDBT,068.7,f,020.61,M,,F*03
$IIRSA,000,A,,V*67
$IIMWV,049.5,R,009.0,N,A*3C
!AIVDM,1,1,,B,13EdA8WP00P0Pt2F>Og@0?v42D0;,0*2E
$IIRSA,000,A,,V*67
!AIVDM,1,1,,A,4028j5iv<cbM2ww0L@FK3GA020S:,0*75
!AIVDM,1,1,,A,1018lEWP0000QinF>H4h0?v21l00,0*2C
$IIVHW,024.6,T,030,M,004.2,N,007.7,K*4E
$IIMTW,040.0,C*27
$IIDBT,068.1,f,020.43,M,,F*05
$IIVHW,024.6,T,030,M,003.8,N,007.0,K*44
$IIRSA,000,A,,V*67
$IIMWV,046,R,008.4,N,A*2D
$IIMTW,040.0,C*27
$GPGLL,3851.38804,N,00007.83358,E,102903.00,A,D*6F
$IIRSA,000,A,,V*67
!AIVDM,1,1,,B,13FB780000OwC@RFD3gq:B0805Al,0*3A
$IIDBT,068.1,f,020.43,M,,F*05
$IIVHW,024.6,T,029,M,003.4,N,006.2,K*43
$GPGGA,102904.00,3851.38919,N,00007.83427,E,2,08,1.27,-0.9,M,49.1,M,,0000*7D
$IIMWV,049.5,R,009.0,N,A*3C
$IIRSA,000,A,,V*67
$IIMTW,040.0,C*27
!AIVDM,1,1,,A,13EaRLWP0000Q5dF>PQP0?v:0D1I,0*7F
$IIRSA,000,A,,V*67
$GPRMC,102905.00,A,3851.39033,N,00007.83494,E,4.484,24.54,230219,,,D*54
!AIVDO,1,1,,,B3GQ34P0;`09T3USgN@?;wR5oP06,0*12
$IIVHW,024.5,T,030,M,004.0,N,007.4,K*4C
$IIMTW,040.0,C*27
$IIMWV,047,R,008.6,N,A*2E
$IIRSA,000,A,,V*67
$GPGLL,3851.39033,N,00007.83494,E,102905.00,A,D*63
$GPRMC,102906.00,A,3851.39144,N,00007.83562,E,4.570,24.97,230219,,,D*5B
!AIVDM,1,1,,B,13cecw002d02SePF>p6Q4Pn<0D19,0*22
!AIVDM,1,1,,B,4028j:Av<cbM500gBjF:4ji0083a,0*67
$IIHDM,030,M*3F
$IIDBT,066.9,f,020.7,M,,F*33
$IIMWV,070.06,T,006.71,N,A*3A
$IIHDM,030,M*3F
$IIVHW,024.9,T,030,M,003.7,N,006.8,K*4D
$IIMTW,040.0,C*27
$GPRMC,102907.00,A,3851.39260,N,00007.83643,E,4.562,24.46,230219,,,D*50
$IIRSA,000,A,,V*67
$GPGGA,102907.00,3851.39260,N,00007.83643,E,2,08,1.27,-1.1,M,49.1,M,,0000*73
!AIVDM,1,1,,B,13d7Hr00kC08ncHFcRHQp1R:0<3C,0*10
$IIMWV,045,R,009.2,N,A*29
$IIHDM,030,M*3F
$IIVHW,024.4,T,030,M,003.9,N,007.2,K*45
$IIMTW,040.0,C*27
$GPGLL,3851.39260,N,00007.83643,E,102907.00,A,D*6D
$GPRMC,102908.00,A,3851.39375,N,00007.83713,E,4.575,25.01,230219,,,D*5A
!AIVDM,1,1,,B,4028j:Qv<cbM7OvPl@Fl:Li00L33,0*27
$IIRSA,000,A,,V*67
$IIDBT,068.3,f,020.49,M,,F*0D
$IIMWV,043.5,R,009.1,N,A*37
$IIRSA,000,A,,V*67
$IIVHW,025.0,T,031,M,004.0,N,007.4,K*49
$GPGLL,3851.39375,N,00007.83713,E,102908.00,A,D*63
$GPRMC,102909.00,A,3851.39486,N,00007.83782,E,4.478,25.28,230219,,,D*5F
$IIHDM,030,M*3F
$GPGGA,102909.00,3851.39486,N,00007.83782,E,2,08,1.27,-0.9,M,49.1,M,,0000*76
$GPGLL,3851.39486,N,00007.83782,E,102909.00,A,D*61
$IIMWV,062.97,T,006.00,N,A*37
$IIVHW,025.2,T,030,M,003.4,N,006.2,K*4E
$IIRSA,000,A,,V*67
!AIVDO,1,1,,,B3GQ34P0;H09TE5SgQl?owU5oP06,0*4C
!AIVDM,1,1,,B,4028jJQv<cbM9Ovgc`F7LM?0285o,0*17
$GPRMC,102910.00,A,3851.39600,N,00007.83851,E,4.618,24.93,230219,,,D*5F
$IIMTW,040.0,C*27
$IIHDM,030,M*3F
$IIMWV,069.57,T,007.08,N,A*39
$IIDBT,069.5,f,020.85,M,,F*0A
$IIVHW,024.9,T,030,M,004.5,N,008.3,K*4D
$IIMTW,040.0,C*27
$IIRSA,000,A,,V*67
$GPRMC,102911.00,A,3851.39711,N,00007.83920,E,4.430,25.98,230219,,,D*5A
$GPGGA,102911.00,3851.39711,N,00007.83920,E,2,08,1.27,-0.8,M,49.1,M,,0000*75
$IIHDM,031,M*3E
$IIMWV,077.45,T,006.06,N,A*3A
$IIVHW,025.9,T,031,M,003.7,N,006.8,K*4D
$IIMTW,040.0,C*27
$IIHDM,030,M*3F
$GPGLL,3851.39711,N,00007.83920,E,102911.00,A,D*63
!AIVDM,1,1,,A,13EbpMWP00P0Q2hF>P100?vF25Al,0*6E
$IIMWV,069.11,T,006.22,N,A*32
$IIHDM,030,M*3F
$IIVHW,025.5,T,030,M,003.7,N,006.8,K*40
$GPGLL,3851.39824,N,00007.83994,E,102912.00,A,D*66
$IIMTW,040.0,C*27
!AIVDM,1,1,,A,13cecw002d02SjPF>q2Q4hnH0@7H,0*14
$IIHDM,030,M*3F
$PNKEP,03,50.0,129.4,0.0*56
$IIMWV,052,R,008.6,N,A*2A
$GPRMC,102913.00,A,3851.39937,N,00007.84057,E,4.463,25.31,230219,,,D*59
!AIVDO,1,1,,,B3GQ34P0;H09TOUSgSp?wwVUoP06,0*43
$IIRSA,000,A,,V*67
$IIVHW,025.3,T,030,M,003.6,N,006.6,K*49
$IIMTW,040.0,C*27
$IIRSA,000,A,,V*67
!AIVDM,1,1,,A,13FB780000OwC@NFD3gq:B0L0<3D,0*02
$IIMTW,040.0,C*27
!AIVDO,1,1,,,B3GQ34P0;H09TS5SgT`?owW5oP06,0*51
$IIMWV,072.80,T,006.04,N,A*34
$GPRMC,102914.00,A,3851.40052,N,00007.84119,E,4.576,24.73,230219,,,D*53
$IIHDM,030,M*3F
$IIDBT,069.5,f,020.85,M,,F*0A
$IIVHW,024.7,T,030,M,003.9,N,007.2,K*46
$IIMTW,040.0,C*27
$IIRSA,000,A,,V*67
$IIMWV,046.5,R,008.4,N,A*36
$GPRMC,102915.00,A,3851.40160,N,00007.84191,E,4.383,25.88,230219,,,D*5B
$IIDBT,070.4,f,021.12,M,,F*0C
$IIRSA,000,A,,V*67
$GPGLL,3851.40160,N,00007.84191,E,102915.00,A,D*6C
$IIVHW,025.8,T,030,M,003.5,N,006.4,K*43
$IIMTW,040.0,C*27
$IIHDM,030,M*3F
$GPRMC,102916.00,A,3851.40267,N,00007.84261,E,4.426,25.39,230219,,,D*52
!AIVDO,1,1,,,B3GQ34P0;809TaUSgV0@?w`5oP06,0*39
!AIVDM,1,1,,A,D028j:B<Tffp,0*52
$IIMWV,008.5,R,008.0,N,A*38
$PNKEP,03,50.0,146.8,0.0*53
$IIRSA,000,A,,V*67
$IIVHW,025.3,T,030,M,003.4,N,006.2,K*4F
$IIMTW,040.0,C*27
$IIHDM,029,M*37
$GPGLL,3851.40267,N,00007.84261,E,102916.00,A,D*67
$IIMWV,041,R,007.9,N,A*28
$PNKEP,03,50.0,118.9,0.0*59
$GPGLL,3851.40378,N,00007.84328,E,102917.00,A,D*65
$IIVHW,023.9,T,029,M,004.0,N,007.4,K*4F
$IIHDM,029,M*37
$IIMTW,040.0,C*27
$IIHDM,029,M*37
$IIMWV,072.83,T,007.07,N,A*35
$GPRMC,102918.00,A,3851.40492,N,00007.84394,E,4.590,24.26,230219,,,D*58
!AIVDM,1,1,,A,4028j:Qv<cbMAOvPlBFl:LQ00<37,0*1C
!AIVDO,1,1,,,B3GQ34P0;`09TkUSg`4??wa5oP06,0*27
$IIDBT,068.8,f,020.64,M,,F*09
$IIVHW,024.2,T,029,M,004.1,N,007.5,K*43
$IIRSA,000,A,,V*67
$IIMTW,040.0,C*27
$GPRMC,102919.00,A,3851.40604,N,00007.84459,E,4.401,24.29,230219,,,D*54
!AIVDM,1,1,,B,13cecw002d02SoPF>r114hnT0H;0,0*12
$IIRSA,000,A,,V*67
$IIMWV,040,R,008.3,N,A*2C
$GPGGA,102919.00,3851.40604,N,00007.84459,E,2,08,1.27,-0.6,M,49.1,M,,0000*7C
$IIDBT,069.4,f,020.82,M,,F*0C
$IIRSA,000,A,,V*67
!AIVDO,1,1,,,B3GQ34P0;809To5Sg`h??waUoP06,0*27
$IIVHW,024.2,T,029,M,003.6,N,006.6,K*41
$IIMWV,068.41,T,005.72,N,A*30
$IIHDM,029,M*37
$IIMTW,040.0,C*27
$PNKEP,03,50.0,125.9,0.0*57
$IIVHW,024.2,T,029,M,004.0,N,007.4,K*43
$IIMTW,040.0,C*27
$GPGGA,102920.00,3851.40716,N,00007.84529,E,2,08,1.27,-0.8,M,49.1,M,,0000*7C
$IIHDM,028,M*36
!AIVDM,1,1,,A,H3aIh>i<4HI8tp0000000000000,2*4D
$IIMWV,052.5,R,008.8,N,A*3F
$IIRSA,000,A,,V*67
$GPGGA,102921.00,3851.40818,N,00007.84605,E,2,08,1.27,-1.7,M,49.1,M,,0000*7F
!AIVDM,1,1,,A,B3Eht0000008>s5S`wCQ3wu5kP06,0*21
$IIDBT,068.8,f,020.64,M,,F*09
$IIVHW,024.4,T,028,M,003.2,N,005.9,K*4E
$IIHDM,029,M*37
$IIMTW,040.0,C*27
$IIMWV,039.5,R,008.1,N,A*3B
$IIRSA,000,A,,V*67
$GPRMC,102922.00,A,3851.40931,N,00007.84676,E,4.417,24.59,230219,,,D*5A
!AIVDM,1,1,,A,13Ef2R000000QvvF>NmioT4d0D1S,0*79
$IIVHW,024.5,T,028,M,003.3,N,006.1,K*45
$IIMTW,040.0,C*27
$IIRSA,000,A,,V*67
$GPGLL,3851.40931,N,00007.84676,E,102922.00,A,D*6A
!AIVDM,1,1,,B,13EdA8WP00P0PtJF>Og@0?vd2@=C,0*77
$IIMWV,054,R,008.4,N,A*2E
$IIRSA,000,A,,V*67
$IIDBT,070.3,f,021.9,M,,F*31
$GPRMC,102923.00,A,3851.41046,N,00007.84736,E,4.410,23.70,230219,,,D*5D
!AIVDO,1,1,,,B3GQ34P0;809U55SgcT>owcUoP06,0*10
$IIMTW,040.0,C*27
$IIMTW,040.0,C*27
$IIRSA,000,A,,V*67
$IIMWV,040,R,007.9,N,A*29
$GPGGA,102924.00,3851.41161,N,00007.84796,E,2,08,1.27,-1.6,M,49.1,M,,0000*76
!AIVDM,1,1,,B,34hs4n500000Q7<F>Ln9VA@f0Dsr,0*1B
$PNKEP,03,50.0,172.0,0.0*5C
$IIVHW,022.8,T,028,M,003.6,N,006.6,K*4C
$IIRSA,000,A,,V*67
$IIMWV,060,R,008.8,N,A*25
$IIMTW,040.0,C*27
$GPRMC,102925.00,A,3851.41277,N,00007.84857,E,4.517,23.21,230219,,,D*51
!AIVDO,1,1,,,B3GQ34P0;H09U;5Sge0>SwdUoP06,0*37
$IIRSA,000,A,,V*67
$PNKEP,03,50.0,102.0,0.0*5B
$IIVHW,023.2,T,028,M,003.6,N,006.6,K*47
$IIMTW,040.0,C*27
$IIRSA,000,A,,V*67
$IIMWV,038.5,R,008.6,N,A*3D
!AIVDM,1,1,,B,H3Eg70PmDp@v0l58Tpv0@u<0000,2*7C
!AIVDM,1,1,,B,177KOM0029P4FN4FuaRWN60t0@?6,0*1C
$IIRSA,000,A,,V*67
$PNKEP,03,50.0,125.9,0.0*57
$IIVHW,023.2,T,028,M,003.9,N,007.2,K*4D
$GPRMC,102926.00,A,3851.41394,N,00007.84922,E,4.568,24.16,230219,,,D*56
$GPGGA,102926.00,3851.41394,N,00007.84922,E,2,08,1.27,-1.4,M,49.1,M,,0000*7F
!AIVDM,1,1,,B,4028j:Av<cbMI00gBnF:4l100D3`,0*3C
!AIVDM,1,1,,A,B3GQ1nh00808?rUS`ghE7we5oP06,0*0E
$IIRSA,000,A,,V*67
$IIMWV,060.5,R,009.1,N,A*36
$IIRSA,000,A,,V*67
$PNKEP,03,50.0,110.5,0.0*5D
$IIVHW,024.1,T,029,M,003.5,N,006.4,K*43
$GPRMC,102927.00,A,3851.41507,N,00007.84984,E,4.271,23.64,230219,,,D*5A
$GPGGA,102927.00,3851.41507,N,00007.84984,E,2,08,1.27,-1.3,M,49.1,M,,0000*79
!AIVDO,1,1,,B,B3GQ34P0:p09UA5SgfL>kweUoP06,0*70
!AIVDM,2,2,9,A,88888888880,2*2D
!AIVDM,1,1,,B,H3Eg70Tt<?B5>J000000002P4660,0*3D
$IIMWV,041,R,007.7,N,A*26
!AIVDM,1,1,,B,D028j:R8Tffp,0*45
$IIRSA,000,A,,V*67
$IIRSA,000,A,,V*67
$PNKEP,03,50.0,122.4,0.0*5D
$IIVHW,023.6,T,028,M,003.7,N,006.8,K*4C
$GPGGA,102928.00,3851.41618,N,00007.85041,E,2,08,1.27,-1.1,M,49.1,M,,0000*78
$IIMTW,040.0,C*27
$IIMWV,075.77,T,006.68,N,A*31
!AIVDO,1,1,,,B3GQ34P0:`09UD5Sgg8>owf5oP06,0*35
$IIHDM,027,M*39
!AIVDM,1,1,,B,B3GPvQ@00808nbUSUFibSwfUoP06,0*28
$IIDBT,069.7,f,020.91,M,,F*0D
$IIRSA,000,A,,V*67
$IIVHW,023.6,T,027,M,004.0,N,007.4,K*4E
$GPRMC,102929.00,A,3851.41730,N,00007.85102,E,4.469,22.46,230219,,,D*5B
!AIVDO,1,1,,,B3GQ34P0;H09UG5Sggl>7wfUoP06,0*73
$IIMWV,053.5,R,009.0,N,A*37
$IIRSA,000,A,,V*67
$IIMTW,040.0,C*27
$GPGGA,102930.00,3851.41844,N,00007.85157,E,2,08,1.27,-1.0,M,49.1,M,,0000*71
!AIVDM,1,1,,B,13cecw002d02T0pF>sl14Pnt08AQ,0*45
!AIVDM,1,1,,B,4028jKiv<cbMM05nCLFA8dg02<2@,0*3C
$IIHDM,028,M*36
$IIVHW,023.6,T,028,M,003.7,N,006.8,K*4C
$IIVHW,023.6,T,028,M,003.7,N,006.8,K*4C
$IIMTW,040.0,C*27
$IIMWV,040,R,008.1,N,A*2E
$IIRSA,000,A,,V*67
$GPGGA,102931.00,3851.41957,N,00007.85212,E,2,08,1.27,-1.1,M,49.1,M,,0000*70
!AIVDM,1,1,,A,H3FVVJP584h0000000000000000,2*52
!AIVDM,1,1,,B,B3GQAD@00808ojUSU8sQ3wgUoP06,0*34
!AIVDM,1,1,,B,13d7Hr00kC08oENFcV41oiRr0@BJ,0*22
$IIVHW,021.7,T,028,M,004.3,N,007.9,K*4C
$IIRSA,000,A,,V*67
$IIMWV,081.34,T,007.39,N,A*38
$IIVHW,021.7,T,027,M,004.2,N,007.7,K*4C
$IIMTW,040.0,C*27
$IIRSA,000,A,,V*67
$GPRMC,102932.00,A,3851.42068,N,00007.85268,E,4.248,22.75,230219,,,D*52
!AIVDM,1,1,,A,B3aJJPP00808i5USVd6NOwgUoP06,0*25
!AIVDM,1,1,,B,4028jM1v<cbMO0098<FsvTw02HBb,0*43
$IIVHW,022.7,T,028,M,002.8,N,005.1,K*48
$IIVHW,022.7,T,028,M,002.7,N,004.9,K*4E
$IIRSA,000,A,,V*67
$IIMWV,045.5,R,008.2,N,A*33
!AIVDO,1,1,,,B3GQ34P0:`09UOUSgit>Cwh5oP06,0*3E
$IIMTW,040.0,C*27
$IIRSA,000,A,,V*67
$GPGGA,102933.00,3851.42181,N,00007.85327,E,2,08,1.27,-1.0,M,49.1,M,,0000*74
$IIVHW,021.6,T,027,M,003.8,N,007.0,K*47
$IIMTW,040.0,C*27
$IIHDM,028,M*36
$IIMWV,076.45,T,007.42,N,A*3A
$GPGLL,3851.42181,N,00007.85327,E,102933.00,A,D*6B
!AIVDO,1,1,,,B3GQ34P0;809URUSgj`=WwhUoP06,0*1A
!AIVDM,1,1,,B,1018lEWP0000QinF>H4h0?w01UAl,0*38
$IIRSA,000,A,,V*67
!AIVDM,1,1,,A,B3GLl@P00808mu5SU9;Q3wi5oP06,0*49
$IIVHW,021.6,T,028,M,003.3,N,006.1,K*43
$IIVHW,021.6,T,028,M,003.2,N,005.9,K*49
$IIMWV,044.5,R,008.1,N,A*31
$IIRSA,000,A,,V*67
$GPGGA,102934.00,3851.42292,N,00007.85384,E,2,08,1.27,-1.0,M,49.1,M,,0000*7B
$IIMTW,040.0,C*27
$IIMTW,040.0,C*27
$IIRSA,000,A,,V*67
$GPGGA,102935.00,3851.42403,N,00007.85445,E,2,08,1.27,-1.2,M,49.1,M,,0000*7C
!AIVDO,1,1,,,B3GQ34P0;809U`USgl0=SwiUoP06,0*7B
!AIVDM,1,1,,A,B3dPgAP00808i4USVaoQ3wiUoP06,0*36
$IIMWV,055.5,R,009.0,N,A*31
$IIHDM,027,M*39
$IIVHW,021.6,T,027,M,003.9,N,007.2,K*44
$IIMTW,040.0,C*27
$IIHDM,027,M*39
$GPRMC,102936.00,A,3851.42514,N,00007.85505,E,4.309,22.35,230219,,,D*54
!AIVDO,1,1,,,B3GQ34P0:p09UcUSgld>3wj5oP06,0*65
!AIVDM,1,1,,A,4028j:Av<cbMS00gBpF:4li008E>,0*37
$IIMWV,075.56,T,006.41,N,A*39
$IIDBT,070.7,f,021.21,M,,F*0F
$IIHDM,027,M*39
$IIVHW,022.3,T,027,M,003.6,N,006.6,K*48
$IIMTW,040.0,C*27
$IIHDM,027,M*39
$GPGLL,3851.42514,N,00007.85505,E,102936.00,A,D*60
!AIVDM,1,1,,A,13cecw002d02T78F>tw14Po:08EU,0*5A
$IIVHW,022.1,T,027,M,003.4,N,006.2,K*4C
$IIMWV,047,R,008.6,N,A*2E
$PNKEP,03,50.0,103.3,0.0*59
$IIHDM,027,M*39
!AIVDO,1,1,,,B3GQ34P0:p09Uf5SgmL=owjUoP06,0*16
$GPGLL,3851.42625,N,00007.85563,E,102937.00,A,D*60
$IIHDM,027,M*39
$IIDBT,070.9,f,021.27,M,,F*07
$IIVHW,021.7,T,027,M,003.6,N,006.6,K*4F
$IIMWV,078.31,T,006.89,N,A*31
!AIVDM,1,1,,A,14hCf6001E00o<>F?PQLh:;<0HF@,0*5E
$IIHDM,027,M*39
!AIVDO,1,1,,,B3GQ34P0;809Ui5Sgn8=cwk5oP06,0*4A
$IIMTW,040.0,C*27
$IIRSA,000,A,,V*67
$IIDBT,072.0,f,021.60,M,,F*0F
$GPGGA,102939.00,3851.42846,N,00007.85680,E,2,07,1.27,-1.2,M,49.1,M,,0000*79
$GPGLL,3851.42846,N,00007.85680,E,102939.00,A,D*6B
$IIMWV,050.5,R,008.2,N,A*37
$PNKEP,03,50.0,109.6,0.0*56
$IIHDM,027,M*39
$IIMTW,040.0,C*27
$GPRMC,102940.00,A,3851.42957,N,00007.85736,E,4.287,21.80,230219,,,D*56
!AIVDM,1,1,,A,4028jJQv<cbMWOvgcTF7LN?028GL,0*1C
!AIVDM,2,2,0,B,iklQmAC0000,2*47
$IIHDM,027,M*39
$IIMWV,070.40,T,006.44,N,A*3E
$IIDBT,071.4,f,021.42,M,,F*08
$PNKEP,03,50.0,118.9,0.0*59
$IIMTW,040.0,C*27
$IIHDM,027,M*39
$GPGLL,3851.42957,N,00007.85736,E,102940.00,A,D*68
$IIHDM,026,M*38
$IIMWV,078.90,T,007.05,N,A*3F
$IIDBT,071.0,f,021.30,M,,F*09
$IIVHW,021.1,T,026,M,003.5,N,006.4,K*49
$PNKEP,03,50.0,109.6,0.0*56
$IIHDM,026,M*38
$GPGLL,3851.43068,N,00007.85790,E,102941.00,A,D*61
!AIVDO,1,1,,,B3GQ34P0:p09UqUSgp<=?wlUoP06,0*5A
!AIVDM,1,1,,B,B3M@mch00808lRUSU1sQ3wlUoP06,0*35
$IIMWV,075.76,T,006.49,N,A*33
$IIHDM,027,M*39
$IIDBT,071.2,f,021.36,M,,F*0D
$IIVHW,021.6,T,027,M,003.6,N,006.6,K*4E
$PNKEP,03,50.0,125.9,0.0*57
$GPGGA,102942.00,3851.43180,N,00007.85847,E,2,07,1.35,-1.4,M,49.1,M,,0000*77
!AIVDO,1,1,,,B3GQ34P0:p09UtUSgpp=Swm5oP06,0*1E
!AIVDM,1,1,,B,13EdA8WP00P0Pu2F>Og00?wD25Al,0*79
$IIMWV,068.02,T,006.14,N,A*34
$IIHDM,027,M*39
$IIDBT,070.5,f,021.15,M,,F*0A
$IIVHW,021.6,T,027,M,003.6,N,006.6,K*4E
$IIMTW,040.0,C*27
$GPRMC,102943.00,A,3851.43293,N,00007.85902,E,4.315,21.27,230219,,,D*59
!AIVDO,1,1,,,B3GQ34P0:p09Uw5SgqT=GwmUoP06,0*2C
$IIHDM,026,M*38
$GPRMC,102944.00,A,3851.43403,N,00007.85960,E,4.360,21.65,230219,,,D*51
$IIMWV,074.15,T,006.22,N,A*3A
$IIHDM,027,M*39
$IIDBT,070.5,f,021.15,M,,F*0A
$PNKEP,03,50.0,136.3,0.0*5F
$GPGLL,3851.43403,N,00007.85960,E,102944.00,A,D*6C
$IIHDM,027,M*39
$IIMTW,040.0,C*27
$IIMWV,071.45,T,006.19,N,A*32
$GPRMC,102945.00,A,3851.43516,N,00007.86016,E,4.375,21.27,230219,,,D*5C
!AIVDM,2,1,1,B,53Ef2R023MJ@D4Q4000Hu8lDq@E860@U8D=@000`000004ch002@RFPH11CR,0*42
!AIVDM,1,1,,B,13FB780000OwC@HFD3gI:B1L05Al,0*6D
$IIHDM,027,M*39
$IIVHW,021.2,T,027,M,003.2,N,005.9,K*42
$IIMTW,040.0,C*27
$IIMTW,040.0,C*27
$IIRSA,000,A,,V*67
$GPRMC,102946.00,A,3851.43625,N,00007.86074,E,4.191,22.48,230219,,,D*5A
$IIMWV,069.16,T,006.38,N,A*3E
$IIDBT,069.7,f,020.91,M,,F*0D
$IIRSA,000,A,,V*67
$GPGLL,3851.43625,N,00007.86074,E,102946.00,A,D*67
!AIVDM,1,1,,A,13EaRLWP0000Q5RF>PQ00?wL05Al,0*7A
!AIVDM,1,1,,B,D028j:AMdffp,0*13
$PNKEP,03,50.0,132.8,0.0*50
$IIMTW,040.0,C*27
!AIVDO,1,1,,,B3GQ34P0:`09V7USgsd>7wo5oP06,0*3C
$IIRSA,000,A,,V*67
$IIMWV,040,R,008.1,N,A*2E
$IIVHW,022.4,T,028,M,004.0,N,007.4,K*42
$IIHDM,027,M*39
$IIMTW,040.0,C*27
$PNKEP,03,50.0,139.8,0.0*5B
$IIMTW,040.0,C*27
$IIHDM,027,M*39
$IIMWV,079.12,T,006.44,N,A*30
$GPRMC,102948.00,A,3851.43849,N,00007.86191,E,4.388,22.02,230219,,,D*5E
$GPGGA,102948.00,3851.43849,N,00007.86191,E,2,07,1.27,-1.4,M,49.1,M,,0000*73
!AIVDO,1,1,,,B3GQ34P0;809V=USgu4=kwp5oP06,0*79
$GPGLL,3851.43849,N,00007.86191,E,102948.00,A,D*67
$IIHDM,027,M*39
$IIMTW,040.0,C*27
$PNKEP,03,50.0,118.9,0.0*59
$IIRSA,000,A,,V*67
$IIMWV,042,R,008.1,N,A*2C
$GPGGA,102949.00,3851.43963,N,00007.86259,E,2,07,1.27,-1.5,M,49.1,M,,0000*7D
!AIVDM,1,1,,B,14hCf60OiE00o6DF?QGdfJ=T0<0e,0*02
$IIVHW,022.7,T,028,M,003.2,N,005.9,K*4B
$IIHDM,028,M*36
$IIMTW,040.0,C*27
$PNKEP,03,50.0,111.9,0.0*50
$IIMWV,049.5,R,008.2,N,A*3F
$IIRSA,000,A,,V*67
$GPRMC,102950.00,A,3851.44074,N,00007.86318,E,4.393,23.01,230219,,,D*5D
!AIVDM,1,1,,B,4028jJQv<cbMiOvgcVF7LMg028MC,0*7D
$IIVHW,023.0,T,028,M,003.2,N,005.9,K*4D
$GPGLL,3851.44074,N,00007.86318,E,102950.00,A,D*6C
$IIRSA,000,A,,V*67
$IIMTW,040.0,C*27
$GPRMC,102951.00,A,3851.44189,N,00007.86390,E,4.325,23.03,230219,,,D*50
!AIVDM,1,1,,A,B3F8IO000808mhUSU<Edcwq5oP06,0*0D
$IIMWV,044.5,R,007.9,N,A*36
$IIRSA,000,A,,V*67
$IIVHW,023.0,T,028,M,003.7,N,006.8,K*4A
$IIMTW,040.0,C*27
$IIHDM,028,M*36
$GPGLL,3851.44189,N,00007.86390,E,102951.00,A,D*6E
$GPRMC,102952.00,A,3851.44303,N,00007.86451,E,4.438,22.73,230219,,,D*54
$IIMWV,079.49,T,006.78,N,A*31
!AIVDO,1,1,,A,B3GQ34P0:p09VGUSgw<>Kwr5oP06,0*20
!AIVDM,1,1,,A,13EbpMWP00P0Q2HF>Ow@0?wV2<0;,0*59
$IIHDM,028,M*36
$IIDBT,070.9,f,021.27,M,,F*07
$IIVHW,022.7,T,028,M,003.4,N,006.2,K*45
$IIMTW,040.0,C*27
$IIRSA,000,A,,V*67
$GPGGA,102952.00,3851.44303,N,00007.86451,E,2,06,1.49,-1.5,M,49.1,M,,0000*7B
!AIVDO,1,1,,,B3GQ34P0;809VJUSgwp>?wr5oP06,0*1D
!AIVDM,1,1,,B,13Ef2R000000QvpF>Nmu745b0D1T,0*58
$IIMWV,044,R,007.9,N,A*2D
$IIRSA,000,A,,V*67
$IIVHW,022.7,T,028,M,004.1,N,007.5,K*41
$GPRMC,102953.00,A,3851.44416,N,00007.86513,E,4.314,22.86,230219,,,D*52
$GPGGA,102953.00,3851.44416,N,00007.86513,E,2,07,1.27,-1.4,M,49.1,M,,0000*76
$IIRSA,000,A,,V*67
$PNKEP,03,50.0,143.3,0.0*5D
$IIMWV,050,R,008.2,N,A*2C
$GPRMC,102954.00,A,3851.44525,N,00007.86568,E,4.242,23.56,230219,,,D*56
!AIVDM,1,1,,B,1018lEWP0000QinF>H4h0?w`1p<i,0*35
$IIHDM,029,M*37
$IIDBT,070.0,f,021.0,M,,F*3B
$IIVHW,023.5,T,029,M,003.2,N,005.9,K*49
$IIMTW,040.0,C*27
$IIRSA,000,A,,V*67
$IIMWV,067.47,T,006.10,N,A*3E
$GPGLL,3851.44525,N,00007.86568,E,102954.00,A,D*68
!AIVDO,1,1,,,B3GQ34P0:`09VPUSh1D>kws5oP06,0*76
$IIRSA,000,A,,V*67
$IIVHW,023.8,T,028,M,003.8,N,007.0,K*44
$IIMTW,040.0,C*27
$GPGLL,3851.44633,N,00007.86625,E,102955.00,A,D*67
$IIRSA,000,A,,V*67
!AIVDO,1,1,,,B3GQ34P0:p09VSUSh1t>wwsUoP06,0*29
!AIVDM,1,1,,B,13EaRLWP0000Q5NF>PPP0?wf05Al,0*2E
$IIMWV,048.5,R,008.2,N,A*3E
$IIRSA,000,A,,V*67
$IIVHW,023.8,T,028,M,003.4,N,006.2,K*4B
$IIMTW,040.0,C*27
$GPRMC,102956.00,A,3851.44744,N,00007.86683,E,4.343,23.40,230219,,,D*50
!AIVDM,1,1,,A,4028j:Av<cbMo00gBpF:4n100@Pt,0*76
$IIHDM,028,M*36
$PNKEP,03,50.0,115.4,0.0*59
$IIMWV,051.5,R,008.2,N,A*36
$GPRMC,102957.00,A,3851.44854,N,00007.86745,E,4.325,23.62,230219,,,D*54
$IIHDM,028,M*36
$IIDBT,070.1,f,021.3,M,,F*39
$IIVHW,023.6,T,028,M,003.6,N,006.6,K*43
$IIMTW,040.0,C*27
$IIMWV,048.5,R,008.0,N,A*3C
$IIHDM,029,M*37
$GPGLL,3851.44854,N,00007.86745,E,102957.00,A,D*6D
!AIVDO,1,1,,,B3GQ34P0:p09VaUSh3D>kwtUoP06,0*32
!AIVDM,1,1,,A,B3Eg70P0A00:uEUSSTG2WwtUkP06,0*11
$IIRSA,000,A,,V*67
$IIVHW,024.1,T,029,M,003.4,N,006.2,K*44
$GPGLL,3851.44965,N,00007.86805,E,102958.00,A,D*6A
$IIMTW,040.0,C*27
$IIMWV,045,R,007.9,N,A*2C
$PNKEP,03,50.0,118.9,0.0*59
$IIRSA,000,A,,V*67
$GPGGA,102959.00,3851.45068,N,00007.86870,E,2,07,1.27,-0.9,M,49.1,M,,0000*74
$GPGLL,3851.45068,N,00007.86870,E,102959.00,A,D*6C
$IIHDM,028,M*36
$IIVHW,023.7,T,028,M,003.2,N,005.9,K*4A
$IIMWV,053.5,R,008.3,N,A*35
$PNKEP,03,50.0,100.2,0.0*5B
$IIRSA,000,A,,V*67
!AIVDO,1,1,,,B3GQ34P0:`09VgUSh4d>owuUoP06,0*06
!AIVDM,1,1,,A,4028jJQv<cbMsOvgcVF7LMO025Ap,0*7E
$GPGGA,103000.00,3851.45173,N,00007.86931,E,2,07,1.27,-0.9,M,49.1,M,,0000*7F
$IIHDM,029,M*37
$IIVHW,024.3,T,029,M,003.4,N,006.2,K*46
$IIMTW,040.0,C*27
$IIMWV,043,R,007.7,N,A*24
$PNKEP,03,50.0,115.4,0.0*59
!AIVDO,1,1,,,B3GQ34P0:H09VjUSh5D?CwP5oP06,0*6A
$IIHDM,028,M*36
$GPRMC,103001.00,A,3851.45280,N,00007.86993,E,4.245,23.86,230219,,,D*55
$GPGLL,3851.45280,N,00007.86993,E,103001.00,A,D*61
$IIHDM,028,M*36
$IIMWV,072.58,T,006.58,N,A*38
$IIVHW,023.8,T,028,M,003.1,N,005.7,K*48
$IIMTW,040.0,C*27
$IIHDM,029,M*37
$IIMTW,040.0,C*27
!AIVDM,1,1,,A,13Ef2R000100QvpF>NnMUl440817,0*13
$IIDBT,073.0,f,021.90,M,,F*01
$IIVHW,023.8,T,029,M,003.4,N,006.2,K*4A
$IIRSA,000,A,,V*67
$GPGGA,103002.00,3851.45388,N,00007.87060,E,2,07,1.27,-1.0,M,49.1,M,,0000*7F
$IIMWV,072.97,T,005.98,N,A*34
$IIMTW,040.0,C*27
$IIMTW,040.0,C*27
!AIVDM,1,1,,A,1018lEWP0000QinF>H4h0?v21hB<,0*56
$IIRSA,000,A,,V*67
$IIVHW,024.0,T,029,M,003.1,N,005.7,K*46
$IIVHW,024.4,T,029,M,003.0,N,005.5,K*41
$IIHDM,028,M*36
$IIMWV,061.60,T,005.59,N,A*33
$IIMTW,040.0,C*27
$PNKEP,03,50.0,104.9,0.0*54
$IIHDM,028,M*36
$GPGGA,103004.00,3851.45602,N,00007.87183,E,2,07,1.27,-1.2,M,49.1,M,,0000*70
!AIVDM,1,1,,B,13FB780000OwC@NFD3fa:B0800Ss,0*3F
!AIVDM,1,1,,B,F028j5j2N2P3D73EB6`>6bT20000,0*5C
$IIVHW,023.8,T,028,M,003.8,N,007.0,K*44
$IIMTW,040.0,C*27
$IIRSA,000,A,,V*67
$IIMWV,052,R,008.1,N,A*2D
$PNKEP,03,50.0,132.8,0.0*50
$IIRSA,000,A,,V*67
$GPRMC,103005.00,A,3851.45711,N,00007.87245,E,4.278,24.08,230219,,,D*52
$IIDBT,071.8,f,021.54,M,,F*03
$IIVHW,024.0,T,028,M,003.2,N,005.9,K*4A
$IIHDM,029,M*37
$GPGLL,3851.45711,N,00007.87245,E,103005.00,A,D*69
$IIMWV,043.5,R,007.7,N,A*3F
$IIMTW,040.0,C*27
$PNKEP,03,50.0,111.9,0.0*50
$GPGGA,103006.00,3851.45821,N,00007.87304,E,2,06,1.49,-1.0,M,49.1,M,,0000*7B
!AIVDM,1,1,,B,D028j:@flffp,0*31
$IIDBT,072.2,f,021.66,M,,F*0B
$IIVHW,023.6,T,029,M,003.9,N,007.2,K*48
$IIMWV,070.52,T,005.46,N,A*3C
$IIHDM,028,M*36
$IIMTW,040.0,C*27
$GPGLL,3851.45821,N,00007.87304,E,103006.00,A,D*62
!AIVDO,1,1,,,B3GQ34P0:`09W55Sh9H>kwS5oP06,0*56
$IIRSA,000,A,,V*67
$IIVHW,023.7,T,028,M,003.9,N,007.2,K*48
$IIMWV,085.81,T,006.93,N,A*33
$IIHDM,028,M*36
$IIMTW,040.0,C*27
$GPGLL,3851.45932,N,00007.87362,E,103007.00,A,D*60
!AIVDO,1,1,,,B3GQ34P0;809W85Sh:4>owSUoP06,0*19
$GPRMC,103008.00,A,3851.46041,N,00007.87421,E,4.187,24.00,230219,,,D*51
$IIRSA,000,A,,V*67
$IIMWV,060.53,T,004.88,N,A*3F
$IIVHW,024.0,T,029,M,002.7,N,004.9,K*4E
$IIVHW,024.0,T,029,M,002.7,N,004.9,K*4E
!AIVDM,1,1,,B,14hCf6001D00ntVF?RkLl:@@0H4k,0*1F
$IIHDM,029,M*37
!AIVDO,1,1,,,B3GQ34P0:`09W;5Sh:h?3wT5oP06,0*25
$IIMTW,040.0,C*27
$IIHDM,028,M*36
$IIMWV,078.06,T,006.67,N,A*35
$GPRMC,103009.00,A,3851.46145,N,00007.87486,E,4.229,23.58,230219,,,D*55
$IIVHW,023.5,T,028,M,003.5,N,006.4,K*41
$IIHDM,029,M*37
$PNKEP,03,50.0,109.6,0.0*56
$GPRMC,103010.00,A,3851.46251,N,00007.87546,E,4.134,24.89,230219,,,D*52
$GPGGA,103010.00,3851.46251,N,00007.87546,E,2,07,1.27,-0.7,M,49.1,M,,0000*7D
!AIVDM,1,1,,B,4028jJQv<cbN9OvgcRF7LMO025Ap,0*30
$IIRSA,000,A,,V*67
$IIMWV,038.5,R,007.4,N,A*30
$IIVHW,024.8,T,029,M,003.1,N,005.7,K*4E
$IIMTW,040.0,C*27
$IIRSA,000,A,,V*67
!AIVDO,1,1,,,B3GQ34P0:H09WAUSh<4?WwU5oP06,0*28
$GPGGA,103011.00,3851.46356,N,00007.87605,E,2,07,1.27,-0.7,M,49.1,M,,0000*7E
$IIRSA,000,A,,V*67
$IIMWV,052.5,R,007.8,N,A*30
$IIVHW,023.4,T,029,M,004.0,N,007.4,K*42
$IIMTW,040.0,C*27
$IIRSA,000,A,,V*67
$GPRMC,103012.00,A,3851.46459,N,00007.87668,E,4.051,24.96,230219,,,D*5D
!AIVDM,1,1,,A,13EbpMWP00P0Q2JF>P100?vF20Sn,0*59
$PNKEP,03,50.0,139.8,0.0*5B
$IIRSA,000,A,,V*67
$IIMWV,046,R,007.9,N,A*2F
$GPGLL,3851.46459,N,00007.87668,E,103012.00,A,D*68
$IIDBT,071.5,f,021.45,M,,F*0E
!AIVDO,1,1,,,B3GQ34P0:H09WGUSh=H?cwV5oP06,0*64
$IIMTW,040.0,C*27
$IIHDM,029,M*37
$PNKEP,03,50.0,108.4,0.0*55
$IIMWV,043.5,R,008.1,N,A*36
$GPGGA,103013.00,3851.46562,N,00007.87734,E,2,07,1.27,-1.0,M,49.1,M,,0000*78
$IIHDM,029,M*37
$IIVHW,024.6,T,029,M,003.3,N,006.1,K*47
$IIMTW,040.0,C*27
$IIHDM,029,M*37
$PNKEP,03,50.0,111.9,0.0*50
$GPRMC,103014.00,A,3851.46663,N,00007.87797,E,4.068,25.10,230219,,,D*54
!AIVDM,1,1,,A,13FB780000OwC@RFD3fq:B0L0883,0*67
!AIVDM,1,1,,A,H3uOMk0hUHDiV0h4AT000000000,2*34
$IIMWV,074.05,T,006.17,N,A*3D
$IIDBT,073.0,f,021.90,M,,F*01
$IIRSA,000,A,,V*67
$IIVHW,025.1,T,029,M,003.3,N,006.1,K*41
$IIMTW,040.0,C*27
$IIHDM,029,M*37
$PNKEP,03,50.0,111.9,0.0*50
$GPRMC,103015.00,A,3851.46765,N,00007.87862,E,4.100,25.38,230219,,,D*52
!AIVDM,1,1,,B,13EaRLWP0000Q5FF>POo9?vN0@8w,0*31
$IIMWV,049,R,007.9,N,A*20
$IIVHW,025.3,T,029,M,003.7,N,006.8,K*4E
$IIRSA,000,A,,V*67
$IIMTW,040.0,C*27
$GPGLL,3851.46765,N,00007.87862,E,103015.00,A,D*67
$IIRSA,000,A,,V*67
$PNKEP,03,50.0,129.4,0.0*56
!AIVDM,1,1,,A,4028j:Av<cbN?00gBnF:4nQ005Ap,0*3B
$GPGGA,103016.00,3851.46870,N,00007.87920,E,2,07,1.27,-1.0,M,49.1,M,,0000*78
$IIMWV,039.5,R,007.6,N,A*33
$IIHDM,029,M*37
$IIVHW,024.8,T,029,M,002.7,N,004.9,K*46
$IIMTW,040.0,C*27
$GPGLL,3851.46870,N,00007.87920,E,103016.00,A,D*68
$IIRSA,000,A,,V*67
$PNKEP,03,50.0,113.3,0.0*58
$IIMWV,060.5,R,008.1,N,A*37
$GPRMC,103017.00,A,3851.46975,N,00007.87979,E,4.256,23.06,230219,,,D*5F
$GPGLL,3851.46975,N,00007.87979,E,103017.00,A,D*61
$IIVHW,023.0,T,028,M,003.5,N,006.4,K*44
$IIMTW,040.0,C*27
$IIRSA,000,A,,V*67
$IIRSA,000,A,,V*67
$IIMWV,040,R,007.9,N,A*29
$PNKEP,03,50.0,109.6,0.0*56
!AIVDM,1,1,,A,D028j:R8Tffp,0*46
$GPGGA,103018.00,3851.47076,N,00007.88040,E,2,07,1.27,-1.3,M,49.1,M,,0000*7A
$IIVHW,024.6,T,028,M,003.1,N,005.7,K*41
$IIMTW,040.0,C*27
$IIHDM,029,M*37
$GPGLL,3851.47076,N,00007.88040,E,103018.00,A,D*69
!AIVDM,1,1,,B,B3Eg2:P00808k45STKSQ3wa5oP06,0*13
!AIVDM,1,1,,B,13cecw002c02TeTF?46150nT0D19,0*0A
$IIRSA,000,A,,V*67
$IIMWV,072.70,T,006.68,N,A*31
$PNKEP,03,50.0,93.9,0.0*6B
$IIVHW,023.5,T,028,M,003.4,N,006.2,K*46
$GPGLL,3851.47179,N,00007.88101,E,103019.00,A,D*62
$IIVHW,023.5,T,028,M,003.4,N,006.2,K*46
$IIRSA,000,A,,V*67
$IIVLW,05912.4,N,0001.11,N*47
$IIMTW,040.0,C*27
$IIMWV,063.31,T,005.87,N,A*36
$PNKEP,03,50.0,118.9,0.0*59
$IIRSA,000,A,,V*67
$IIDBT,073.0,f,021.90,M,,F*01
$GPRMC,103020.00,A,3851.47285,N,00007.88156,E,4.158,22.85,230219,,,D*53
!AIVDM,1,1,,A,4028jJQv<cbNCOvgcHF7LMw025Ap,0*6B
$IIMTW,040.0,C*27
$IIRSA,000,A,,V*67
$IIMWV,060,R,008.1,N,A*2C
!AIVDO,1,1,,,B3GQ34P0:`09Wh5ShBT>Gwb5oP06,0*71
$IIRSA,000,A,,V*67
$IIDBT,072.4,f,021.72,M,,F*08
$IIVHW,022.4,T,028,M,003.5,N,006.4,K*41
$IIMTW,040.0,C*27
$IIRSA,000,A,,V*67
$GPGLL,3851.47392,N,00007.88211,E,103021.00,A,D*6C
!AIVDM,1,1,,A,4028jM1v<cbNE0098>FsvRO02D2@,0*2B
$IIMWV,061.38,T,005.60,N,A*34
$IIHDM,028,M*36
$PNKEP,03,50.0,122.4,0.0*5D
$IIVHW,022.4,T,028,M,002.9,N,005.3,K*48
$IIMTW,040.0,C*27
$GPRMC,103022.00,A,3851.47500,N,00007.88262,E,4.076,22.20,230219,,,D*5D
!AIVDM,1,1,,A,13Ef2R000100Qw2F>NnBPT4d0@=3,0*42
$IIHDM,027,M*39
$IIMWV,072.22,T,006.58,N,A*35
!AIVDM,1,1,,B,13EbpMWP00P0Q2HF>P11>wvd2H=J,0*0F
$IIHDM,027,M*39
$PNKEP,03,50.0,87.6,0.0*61
$GPRMC,103023.00,A,3851.47606,N,00007.88312,E,4.164,21.08,230219,,,D*54
!AIVDO,1,1,,B,B3GQ34P0:H09Wm5ShCp=swc5oP06,0*0D
$IIVHW,021.0,T,027,M,003.6,N,006.6,K*48
$IIVHW,021.0,T,027,M,003.6,N,006.6,K*48
$IIHDM,027,M*39
$IIMTW,040.0,C*27
$IIMWV,043.5,R,008.2,N,A*35
$GPRMC,103024.00,A,3851.47713,N,00007.88365,E,4.066,21.20,230219,,,D*5F
!AIVDM,1,1,,B,13FB780000OwC@RFD3g9:B0h0D3C,0*0E
$IIRSA,000,A,,V*67
$IIDBT,072.5,f,021.75,M,,F*0E
$IIVHW,021.2,T,027,M,002.9,N,005.3,K*42
$IIHDM,027,M*39
$IIMTW,040.0,C*27
$IIMWV,047,R,007.9,N,A*2E
$GPRMC,103025.00,A,3851.47817,N,00007.88417,E,4.132,20.21,230219,,,D*57
!AIVDM,1,1,,B,H3GQ3L4TC=D6>5e00000001@2220,0*76
$IIHDM,027,M*39
$IIDBT,073.2,f,021.96,M,,F*05
!AIVDO,1,1,,,B3GQ34P0:H09WrUShE<=CwdUoP06,0*2D
$IIVHW,020.2,T,027,M,003.6,N,006.6,K*4B
$IIMTW,040.0,C*27
$IIRSA,000,A,,V*67
$IIMWV,070.82,T,006.16,N,A*37
$GPRMC,103026.00,A,3851.47924,N,00007.88471,E,4.036,21.64,230219,,,D*50
!AIVDM,1,1,,A,13EaRLWP0000Q5@F>PPh0?vj0@?3,0*42
!AIVDM,1,1,,B,D028j:B<Tffp,0*51
$IIHDM,027,M*39
$IIDBT,073.6,f,022.8,M,,F*35
$IIVHW,021.6,T,027,M,003.0,N,005.5,K*48
$IIMTW,040.0,C*27
!AIVDO,1,1,,,B3GQ34P0:H09Wu5ShEp<cwe5oP06,0*46
!AIVDM,1,1,,B,B3GQ9:h00808j@5SVRUW7we5oP06,0*7A
!AIVDM,2,2,2,A,88888888880,2*26
$IIMWV,044,R,007.8,N,A*2C
!AIVDM,1,1,,B,D028jM1IPN?b<`O6D0,4*12
$IIHDM,027,M*39
$PNKEP,03,50.0,104.9,0.0*54
$IIRSA,000,A,,V*67
$IIVHW,020.4,T,027,M,003.6,N,006.6,K*4D
$GPGGA,103027.00,3851.48031,N,00007.88524,E,2,07,1.27,-1.1,M,49.1,M,,0000*7F
!AIVDO,1,1,,,B3GQ34P0:809WwUShFP=SweUoP06,0*26
$IIMTW,040.0,C*27
$IIMWV,088.88,T,007.18,N,A*35
$IIHDM,026,M*38
$GPRMC,103028.00,A,3851.48140,N,00007.88575,E,4.119,21.11,230219,,,D*50
!AIVDM,1,1,,B,4028j:Qv<cbNKOvPl6Fl:LQ00<39,0*6C
$PNKEP,03,50.0,112.7,0.0*5D
!AIVDO,1,1,,,B3GQ34P0:`09`25ShG<<owf5oP06,0*5F
$IIHDM,026,M*38
!AIVDM,1,1,,A,E>jAqHFR2W4Ph17QPW0h10Q7a0000Atr;7@hh10@HSvP10,4*4E
$IIVHW,021.1,T,026,M,003.2,N,005.9,K*40
$IIMTW,040.0,C*27
$IIMWV,045,R,007.3,N,A*26
$IIRSA,000,A,,V*67
$GPGLL,3851.48140,N,00007.88575,E,103028.00,A,D*62
$IIDBT,073.4,f,022.2,M,,F*3D
!AIVDM,1,1,,A,B3P=ovP00808ge5SUgkQ3wf5oP06,0*01
!AIVDM,1,1,,A,E>jAqHVR2W4Ph2a`2`bRh17QPW0P0BJL;7CQ010@HSvP180P@SlP,0*4B
$GPGLL,3851.48249,N,00007.88627,E,103029.00,A,D*6D
$IIRSA,000,A,,V*67
$IIMWV,089.89,T,007.81,N,A*35
$IIHDM,026,M*38
$IIVHW,020.6,T,026,M,003.8,N,007.0,K*47
$GPRMC,103030.00,A,3851.48357,N,00007.88679,E,4.076,21.02,230219,,,D*58
!AIVDO,1,1,,,B3GQ34P0:`09`7UShHT<swg5oP06,0*40
!AIVDM,1,1,,B,4028jJQv<cbNMOvgcBF7LNO025Ap,0*57
$PNKEP,03,50.0,107.7,0.0*59
$IIDBT,074.2,f,022.26,M,,F*0A
$IIRSA,000,A,,V*67
$IIMWV,063.24,T,005.70,N,A*3A
$GPGLL,3851.48357,N,00007.88679,E,103030.00,A,D*60
$GPRMC,103031.00,A,3851.48464,N,00007.88729,E,4.187,20.15,230219,,,D*52
$IIRSA,000,A,,V*67
$IIMTW,040.0,C*27
$PNKEP,03,50.0,94.4,0.0*61
$IIVHW,020.1,T,026,M,003.9,N,007.2,K*43
$GPGGA,103031.00,3851.48464,N,00007.88729,E,2,07,1.27,-1.2,M,49.1,M,,0000*70
!AIVDO,1,1,,,B3GQ34P0:H09`:5ShI@=;wgUoP06,0*39
$IIRSA,000,A,,V*67
$IIMWV,070.5,R,008.5,N,A*32
!AIVDM,1,1,,B,13d7Hr00kC08pvPFcgC1o1Rr0<3C,0*0A
!AIVDM,1,1,,B,4028jM1v<cbNO0098:FsvQw02D2@,0*1D
$IIMTW,040.0,C*27
$IIRSA,000,A,,V*67
$PNKEP,03,50.0,110.5,0.0*5D
$IIVHW,020.1,T,026,M,002.9,N,005.3,K*41
$IIHDM,026,M*38
$GPRMC,103032.00,A,3851.48572,N,00007.88782,E,4.066,21.85,230219,,,D*50
!AIVDO,1,1,,,B3GQ34P0:`09`<UShIp<cwh5oP06,0*71
$IIMWV,039,R,007.2,N,A*2C
$IIMTW,040.0,C*27
$IIRSA,001,A,,V*66
$GPGGA,103033.00,3851.48679,N,00007.88834,E,2,07,1.27,-1.2,M,49.1,M,,0000*7F
!AIVDM,1,1,,B,H3GQ324TC=D6>5=00000001@2220,0*50
!AIVDM,2,2,3,A,@0000000000,2*57
$PNKEP,03,50.0,117.5,0.0*5A
$IIVHW,020.0,T,026,M,003.8,N,007.0,K*41
$IIMTW,040.0,C*27
$IIRSA,001,A,,V*66
$IIMWV,070,R,008.5,N,A*29
$GPRMC,103034.00,A,3851.48788,N,00007.88885,E,4.115,20.87,230219,,,D*5F
!AIVDM,1,1,,A,13EdA8WP00P0PtFF>Oi23ww42L0;,0*67
!AIVDO,1,1,,,B3GQ34P0:H09`DUShKt=7wi5oP06,0*73
$IIRSA,001,A,,V*66
$PNKEP,03,50.0,107.7,0.0*59
$IIVHW,020.8,T,026,M,002.5,N,004.6,K*40
$IIMWV,057.85,T,005.65,N,A*32
$IIHDM,026,M*38
$GPGGA,103034.00,3851.48788,N,00007.88885,E,2,07,1.27,-1.1,M,49.1,M,,0000*7E
$GPRMC,103035.00,A,3851.48895,N,00007.88937,E,4.204,20.62,230219,,,D*5D
$IIMTW,040.0,C*27
$IIRSA,001,A,,V*66
$PNKEP,03,50.0,87.4,0.0*63
$IIVHW,020.6,T,027,M,003.3,N,006.1,K*4D
$IIMTW,040.0,C*27
$IIMWV,062.5,R,008.2,N,A*36
$IIRSA,001,A,,V*66
$GPGLL,3851.48895,N,00007.88937,E,103035.00,A,D*65
$GPRMC,103036.00,A,3851.49001,N,00007.88988,E,3.956,21.52,230219,,,D*57
$IIHDM,027,M*39
!AIVDO,1,1,,,B3GQ34P0:809`IUShM@=Owj5oP06,0*47
!AIVDM,1,1,,A,4028j:Av<cbNS00gBrF:4ni005Ap,0*73
$IIDBT,072.7,f,021.81,M,,F*07
$IIVHW,021.5,T,027,M,002.7,N,004.9,K*40
$IIMWV,063.63,T,005.58,N,A*33
$IIHDM,027,M*39
$IIMTW,040.0,C*27
$GPGLL,3851.49001,N,00007.88988,E,103036.00,A,D*66
!AIVDM,1,1,,A,13cecw002c02TuPF?7@Q50o:05Ap,0*2F
$IIRSA,001,A,,V*66
$IIVHW,020.5,T,027,M,003.7,N,006.8,K*43
$IIMTW,040.0,C*27
$GPGLL,3851.49107,N,00007.89041,E,103037.00,A,D*6D
$IIMWV,064,R,007.9,N,A*2F
$IIHDM,027,M*39
!AIVDM,1,1,,A,4028j:Qv<cbNUOvPl4Fl:Li005Ap,0*79
$IIRSA,001,A,,V*66
$GPGGA,103038.00,3851.49211,N,00007.89089,E,2,07,1.27,-0.9,M,49.1,M,,0000*7A
$IIDBT,073.3,f,021.99,M,,F*0B
$PNKEP,03,50.0,115.8,0.0*55
$IIMWV,043,R,007.3,N,A*20
$IIMTW,040.0,C*27
$IIHDM,027,M*39
$GPGLL,3851.49211,N,00007.89089,E,103038.00,A,D*62
$GPGGA,103039.00,3851.49316,N,00007.89145,E,2,07,1.27,-1.0,M,49.1,M,,0000*74
$IIDBT,073.3,f,021.99,M,,F*0B
$IIVHW,021.4,T,027,M,003.7,N,006.8,K*43
$IIMWV,059.5,R,008.1,N,A*3D
$IIMTW,040.0,C*27
$IIRSA,002,A,,V*65
$GPGLL,3851.49316,N,00007.89145,E,103039.00,A,D*64
!AIVDM,1,1,,A,4028jJQv<cbNWOvgc@F7LO?025Ap,0*3D
$IIRSA,001,A,,V*66
$IIMWV,074.18,T,005.36,N,A*31
$PNKEP,03,50.0,155.2,0.0*5B
$IIVHW,022.1,T,028,M,003.2,N,005.9,K*4D
$IIMTW,040.0,C*27
$GPGLL,3851.49422,N,00007.89194,E,103040.00,A,D*66
$IIHDM,028,M*36
$GPRMC,103041.00,A,3851.49523,N,00007.89248,E,4.021,21.81,230219,,,D*54
!AIVDO,1,1,,,B3GQ34P0:809`VUShPP=cwlUoP06,0*1F
$IIRSA,001,A,,V*66
$IIMWV,054.5,R,007.9,N,A*37
$IIVHW,021.8,T,028,M,003.2,N,005.9,K*47
$IIMTW,040.0,C*27
$IIHDM,028,M*36
$GPGLL,3851.49523,N,00007.89248,E,103041.00,A,D*65
!AIVDM,1,1,,B,H3GPvQ@8u88thE@400000000000,2*7C
!AIVDM,1,1,,A,4028jM1v<cbNa00986FsvQO02D2@,0*04
$IIMWV,071.34,T,005.83,N,A*34
$IIHDM,029,M*37
$PNKEP,03,50.0,111.9,0.0*50
$IIVHW,022.6,T,029,M,003.4,N,006.2,K*45
!AIVDO,1,1,,,B3GQ34P0:H09`a5ShQ<>;wm5oP06,0*6F
$IIMTW,040.0,C*27
$IIHDM,029,M*37
$GPRMC,103043.00,A,3851.49731,N,00007.89363,E,3.977,23.66,230219,,,D*59
!AIVDM,1,1,,B,13EbpMWP00P0Q28F>P000?wD25Ap,0*23
$IIMWV,040,R,007.6,N,A*26
$IIRSA,001,A,,V*66
$IIDBT,073.6,f,022.8,M,,F*35
$PNKEP,03,50.0,142.6,0.0*59
!AIVDO,1,1,,,B3GQ34P0:809`d5ShQl>owmUoP06,0*7E
$IIMTW,040.0,C*27
$IIRSA,001,A,,V*66
$GPGGA,103044.00,3851.49829,N,00007.89427,E,2,07,1.27,-0.9,M,49.1,M,,0000*70
$IIMWV,082.15,T,006.47,N,A*30
$IIDBT,072.4,f,021.72,M,,F*08
$IIRSA,001,A,,V*66
$PNKEP,03,50.0,111.9,0.0*50
$IIMTW,040.0,C*27
$IIHDM,030,M*3F
$GPGLL,3851.49829,N,00007.89427,E,103044.00,A,D*68
!AIVDM,1,1,,A,1018lEWP0000QinF>H4h0?wF1l00,0*59
!AIVDM,1,1,,B,B3GLW1000808me5SU?gPwwn5oP06,0*68
$IIMWV,039,R,006.8,N,A*27
$IIVHW,024.1,T,030,M,002.8,N,005.1,K*41
$GPGLL,3851.49928,N,00007.89487,E,103045.00,A,D*63
$PNKEP,03,50.0,117.5,0.0*5A
$IIRSA,001,A,,V*66
$IIMTW,040.0,C*27
$GPRMC,103046.00,A,3851.50028,N,00007.89555,E,3.969,24.72,230219,,,D*55
!AIVDM,1,1,,B,4028j:Av<cbNe00gC0F:4ni005Ap,0*05
$GPGGA,103046.00,3851.50028,N,00007.89555,E,2,07,1.49,-1.1,M,49.1,M,,0000*76
$IIMWV,060.5,R,007.9,N,A*30
$IIRSA,001,A,,V*66
$IIHDM,030,M*3F
$IIVHW,024.7,T,030,M,003.5,N,006.4,K*4D
$IIMTW,040.0,C*27
!AIVDO,1,1,,,B3GQ34P0:809`n5ShSd?Owo5oP06,0*3D
$IIHDM,031,M*3E
$IIMWV,067.23,T,005.19,N,A*36
$GPRMC,103047.00,A,3851.50130,N,00007.89617,E,4.032,26.80,230219,,,D*56
$GPGGA,103047.00,3851.50130,N,00007.89617,E,2,07,1.49,-0.8,M,49.1,M,,0000*72
!AIVDO,1,1,,,B3GQ34P0:809`q5ShTD@kwoUoP06,0*3E
$IIHDM,031,M*3E
$PNKEP,03,50.0,121.7,0.0*5D
$IIMTW,040.0,C*27
$IIHDM,031,M*3E
$IIMWV,060.13,T,006.01,N,A*38
$GPGLL,3851.50130,N,00007.89617,E,103047.00,A,D*63
!AIVDM,1,1,,A,H3GQADAL4heU8T4000000000000,2*75
$IIDBT,072.5,f,021.75,M,,F*0E
$IIVHW,025.7,T,031,M,002.9,N,005.3,K*44
!AIVDO,1,1,,,B3GQ34P09p09`t5ShTt@;wp5oP06,0*6F
$IIMTW,040.0,C*27
$IIRSA,001,A,,V*66
$GPRMC,103049.00,A,3851.50329,N,00007.89738,E,3.833,25.95,230219,,,D*57
$IIRSA,001,A,,V*66
$IIMWV,042,R,007.6,N,A*24
$IIDBT,073.0,f,021.90,M,,F*01
$IIVHW,025.9,T,031,M,002.9,N,005.3,K*4A
$IIHDM,032,M*3D
$IIMTW,040.0,C*27
$GPGLL,3851.50329,N,00007.89738,E,103049.00,A,D*6B
!AIVDM,1,1,,B,14hCf6001E00n`lF?V1dm:?T08Lq,0*3E
!AIVDM,1,1,,B,4028jJQv<cbNiOvgc@F7LOg025Ap,0*58
$IIMWV,045.5,R,007.7,N,A*39
$IIRSA,001,A,,V*66
$IIVHW,026.4,T,032,M,003.3,N,006.1,K*4D
$IIMTW,040.0,C*27
$IIHDM,032,M*3D
$GPGGA,103050.00,3851.50428,N,00007.89809,E,2,07,1.27,-0.9,M,49.1,M,,0000*70
!AIVDO,1,1,,,B3GQ34P0:809a2UShV<@Wwq5oP06,0*24
$IIMWV,044.5,R,007.8,N,A*37
$IIRSA,000,A,,V*67
$GPGGA,103051.00,3851.50517,N,00007.89879,E,2,07,1.27,-0.8,M,49.1,M,,0000*7A
$IIVHW,028.4,T,032,M,002.7,N,004.9,K*4C
$IIMTW,040.0,C*27
$PNKEP,03,50.0,90.9,0.0*68
$IIRSA,000,A,,V*67
$IIMWV,037,R,007.4,N,A*24
$GPRMC,103052.00,A,3851.50612,N,00007.89944,E,3.858,25.10,230219,,,D*55
$IIRSA,000,A,,V*67
!AIVDM,1,1,,B,4028jM1v<cbNk00982FsvPg02D2@,0*20
$IIVHW,025.1,T,032,M,003.4,N,006.2,K*4F
$IIMTW,040.0,C*27
$PNKEP,03,50.0,118.9,0.0*59
$IIRSA,000,A,,V*67
!AIVDO,1,1,,,B3GQ34P09p09a95ShWD?gwr5oP06,0*31
!AIVDM,1,1,,A,13EdA8WP00P0PtJF>OfP0?w`28Nc,0*4B
$IIMWV,075.47,T,006.54,N,A*3D
$IIHDM,032,M*3D
!AIVDO,1,1,,,B3GQ34P09H09a<UShWtAKwrUoP06,0*6E
$IIVHW,025.1,T,032,M,002.9,N,005.3,K*41
$IIMTW,040.0,C*27
$GPRMC,103053.00,A,3851.50705,N,00007.90009,E,3.739,27.80,230219,,,D*58
$PNKEP,03,50.0,87.6,0.0*61
$IIRSA,000,A,,V*67
$IIMWV,044.5,R,007.3,N,A*3C
!AIVDM,1,1,,B,H3GPvQDUC=D4NI@0000000000000,0*06
$IIHDM,032,M*3D
$GPRMC,103054.00,A,3851.50799,N,00007.90075,E,3.808,27.39,230219,,,D*5E
$IIDBT,073.3,f,021.99,M,,F*0B
$IIVHW,027.3,T,032,M,002.7,N,004.9,K*44
$PNKEP,03,50.0,94.4,0.0*61
$IIHDM,032,M*3D
$IIMWV,063.86,T,006.32,N,A*37
$GPGLL,3851.50799,N,00007.90075,E,103054.00,A,D*6E
!AIVDO,1,1,,,B3GQ34P09`09a@5Sh`PA;ws5oP06,0*58
$IIRSA,000,A,,V*67
$IIVHW,027.8,T,032,M,003.1,N,005.7,K*47
$IIMTW,040.0,C*27
$GPGLL,3851.50895,N,00007.90138,E,103055.00,A,D*64
!AIVDM,1,1,,A,13FB780000OwC@PFD3fq:B1h0@PK,0*28
$IIHDM,032,M*3D
!AIVDO,1,1,,,B3GQ34P09`09aC5Sha8AOwsUoP06,0*26
$IIMWV,068.64,T,005.79,N,A*3C
!AIVDM,1,1,,A,4028j:Av<cbNo00gC4F:4nQ00<3U,0*6E
$IIDBT,073.1,f,021.93,M,,F*03
$IIRSA,000,A,,V*67
$GPRMC,103056.00,A,3851.50992,N,00007.90197,E,3.838,27.43,230219,,,D*5A
!AIVDM,1,1,,B,B3GPvvh00H08n2USU3?Q3wt5oP06,0*05
$IIVHW,027.4,T,032,M,003.2,N,005.9,K*46
$IIHDM,032,M*3D
$IIMWV,068.57,T,005.82,N,A*38
$IIMTW,040.0,C*27
!AIVDM,1,1,,B,B3l92=h03009lJUSi:5Gkwt5kP06,0*3D
$IIDBT,073.1,f,021.93,M,,F*03
$IIHDM,032,M*3D
$GPGGA,103057.00,3851.51085,N,00007.90262,E,2,06,1.49,-0.9,M,49.1,M,,0000*73
$IIVHW,027.7,T,032,M,002.7,N,004.9,K*40
$IIMTW,040.0,C*27
$IIMWV,065.92,T,006.08,N,A*3D
!AIVDO,1,1,,,B3GQ34P09`09aI5ShbDAKwtUoP06,0*50
$IIRSA,000,A,,V*67
$GPRMC,103058.00,A,3851.51180,N,00007.90325,E,3.793,27.92,230219,,,D*57
$IIHDM,032,M*3D
$IIVHW,027.9,T,032,M,003.3,N,006.1,K*41
$IIMTW,040.0,C*27
$GPGLL,3851.51180,N,00007.90325,E,103058.00,A,D*6B
!AIVDO,1,1,,,B3GQ34P09`09aLUShbpAOwu5oP06,0*64
$IIMWV,066.98,T,005.86,N,A*31
$IIHDM,032,M*3D
$GPRMC,103059.00,A,3851.51274,N,00007.90387,E,3.811,27.56,230219,,,D*5B
!AIVDM,1,1,,A,B3GLl@P00808me5SU:OQ3wu5oP06,0*32
$IIDBT,073.2,f,021.96,M,,F*05
$IIRSA,000,A,,V*67
$IIVHW,027.5,T,032,M,003.1,N,005.7,K*4A
$PNKEP,03,50.0,108.4,0.0*55
$IIMWV,067.22,T,005.62,N,A*3B
!AIVDO,1,1,,,B3GQ34P09`09aOUShcLACwuUoP06,0*36
!AIVDM,1,1,,A,14hCf6001D00nSnF?Vldk:<005At,0*34
$IIHDM,031,M*3E
$IIMTW,040.0,C*27
$IIVHW,027.5,T,031,M,003.2,N,005.9,K*44
$IIRSA,000,A,,V*67
$GPRMC,103100.00,A,3851.51369,N,00007.90452,E,3.796,26.94,230219,,,D*5B
$IIMTW,040.0,C*27
$IIMWV,071.93,T,005.86,N,A*3C
$PNKEP,03,50.0,111.9,0.0*50
$IIHDM,032,M*3D
!AIVDM,1,1,,A,B3aIh>h0JH0:RAUS`qa@WwP5oP06,0*20
$GPRMC,103101.00,A,3851.51462,N,00007.90513,E,3.733,27.11,230219,,,D*51
$IIVHW,027.1,T,032,M,003.4,N,006.2,K*4D
$IIHDM,032,M*3D
$IIMTW,040.0,C*27
$IIMWV,064.14,T,005.03,N,A*3A
$PNKEP,03,50.0,142.6,0.0*59
!AIVDO,1,1,,,B3GQ34P09H09aUUShd`@wwPUoP06,0*3F
$IIRSA,000,A,,V*67
$GPGGA,103102.00,3851.51556,N,00007.90574,E,2,07,1.27,-1.1,M,49.1,M,,0000*79
!AIVDM,1,1,,A,13Ef2R000100Qw<F>NnW3l4405At,0*1C
!AIVDM,1,1,,B,13EbpMWP00P0Q2<F>P1P0?v42<0;,0*04
$IIVHW,027.0,T,031,M,002.5,N,004.6,K*49
$IIHDM,031,M*3E
$GPGLL,3851.51556,N,00007.90574,E,103102.00,A,D*68
$IIMWV,065.97,T,006.02,N,A*32
$PNKEP,03,50.0,87.4,0.0*63
$IIHDM,031,M*3E
$GPRMC,103103.00,A,3851.51650,N,00007.90632,E,3.813,26.96,230219,,,D*53
!AIVDM,1,1,,A,4028j5iv<cbO2ww0L@FK3GA02D2F,0*1E
$IIDBT,071.4,f,021.42,M,,F*08
!AIVDO,1,1,,,B3GQ34P09`09acUShel@swQUoP06,0*29
$IIVHW,026.9,T,031,M,003.4,N,006.2,K*47
$IIMTW,040.0,C*27
$IIRSA,000,A,,V*67
$IIMWV,041,R,007.7,N,A*26
$IIHDM,032,M*3D
$GPGLL,3851.51650,N,00007.90632,E,103103.00,A,D*6D
$IIDBT,072.7,f,021.81,M,,F*07
$IIVHW,027.1,T,032,M,002.8,N,005.1,K*40
$IIHDM,031,M*3E
$IIMWV,062.10,T,005.45,N,A*3A
$IIVHW,027.1,T,031,M,002.8,N,005.1,K*43
!AIVDM,1,1,,B,H3GQ9?DTC=D5Rbu00000001@2220,0*57
$IIMTW,040.0,C*27
$IIMTW,040.0,C*27
$IIRSA,000,A,,V*67
$IIVHW,025.2,T,031,M,003.1,N,005.7,K*4C
$IIMTW,040.0,C*27
$IIMWV,066.35,T,006.20,N,A*39
$IIHDM,031,M*3E
$GPGGA,103105.00,3851.51839,N,00007.90742,E,2,07,1.27,-1.0,M,49.1,M,,0000*7C
$PNKEP,03,50.0,104.9,0.0*54
!AIVDM,1,1,,A,13EaRLWP0000Q5BF>PQ00?v:0<1D,0*4C
!AIVDM,1,1,,B,177KOM0029P4Ew2FuJkoMn0D05At,0*28
$IIHDM,031,M*3E
$GPRMC,103106.00,A,3851.51937,N,00007.90796,E,3.890,25.84,230219,,,D*5C
!AIVDM,1,1,,B,4028j:Av<cbO500gC4F:4nQ000S:,0*35
!AIVDM,1,1,,B,4028j5iv<cbO6ww0L@FK3GA025At,0*29
$IIVHW,025.8,T,031,M,002.7,N,004.9,K*4E
$IIMWV,069.81,T,005.91,N,A*30
$IIHDM,031,M*3E
$IIMTW,040.0,C*27
$PNKEP,03,50.0,94.4,0.0*61
$GPRMC,103107.00,A,3851.52037,N,00007.90849,E,3.797,26.17,230219,,,D*5B
$IIHDM,031,M*3E
$IIDBT,074.4,f,022.32,M,,F*09
$IIVHW,026.1,T,031,M,002.8,N,005.1,K*42
$IIMWV,066.47,T,006.14,N,A*3B
$GPGGA,103107.00,3851.52037,N,00007.90849,E,2,07,1.27,-0.6,M,49.1,M,,0000*78
$IIMTW,040.0,C*27
$IIRSA,000,A,,V*67
!AIVDO,1,1,,,B3GQ34P09`09anUShh@@KwSUoP06,0*3F
!AIVDM,1,1,,B,4028j:Qv<cbO7OvPl0Fl:M100D2q,0*47
!AIVDM,1,1,,B,14hCf6001E00nOTF?WM<j:<@0D0e,0*08
$IIRSA,000,A,,V*67
$GPRMC,103108.00,A,3851.52132,N,00007.90907,E,3.750,25.79,230219,,,D*5B
$IIDBT,074.3,f,022.29,M,,F*04
$IIVHW,025.7,T,031,M,003.2,N,005.9,K*44
$IIMWV,048,R,007.3,N,A*2B
$IIMTW,040.0,C*27
$IIRSA,000,A,,V*67
$GPGLL,3851.52132,N,00007.90907,E,103108.00,A,D*6F
!AIVDO,1,1,,,B3GQ34P09`09aqUShhl@;wT5oP06,0*1B
$IIHDM,031,M*3E
$IIDBT,074.3,f,022.29,M,,F*04
$IIMWV,047.5,R,007.6,N,A*3A
$IIVHW,025.8,T,031,M,003.5,N,006.4,K*42
$IIRSA,000,A,,V*67
$GPGLL,3851.52224,N,00007.90962,E,103109.00,A,D*69
!AIVDO,1,1,,,B3GQ34P09H09at5ShiH@;wTUoP06,0*13
!AIVDM,1,1,,B,4028jJQv<cbO9Ovgc@F7LPw020S:,0*5B
$IIHDM,031,M*3E
$IIDBT,075.5,f,022.65,M,,F*0B
$IIMWV,068.36,T,005.82,N,A*3F
$IIVHW,026.6,T,031,M,002.9,N,005.3,K*46
$IIMTW,040.0,C*27
$IIRSA,000,A,,V*67
$GPGLL,3851.52317,N,00007.91018,E,103110.00,A,D*65
$PNKEP,03,50.0,101.4,0.0*5C
$GPGGA,103111.00,3851.52408,N,00007.91079,E,2,06,1.49,-0.7,M,49.1,M,,0000*75
$IIRSA,000,A,,V*67
$IIMWV,044.5,R,007.4,N,A*3B
$IIVHW,026.4,T,031,M,002.9,N,005.3,K*44
$IIMTW,040.0,C*27
$IIHDM,030,M*3F
$PNKEP,03,50.0,101.4,0.0*5C
$GPRMC,103112.00,A,3851.52497,N,00007.91141,E,3.702,26.59,230219,,,D*57
$IIDBT,075.2,f,022.56,M,,F*0C
!AIVDM,1,1,,B,4028jM1v<cbO;0097pFsvOw02@6t,0*07
$IIMWV,066.74,T,006.07,N,A*39
$IIVHW,026.5,T,030,M,002.9,N,005.3,K*44
$IIMTW,040.0,C*27
$IIHDM,030,M*3F
$PNKEP,03,50.0,97.9,0.0*6F
$GPRMC,103113.00,A,3851.52591,N,00007.91197,E,3.832,25.88,230219,,,D*59
!AIVDM,1,1,,A,B3FVVJP00808gjUSUwt:cwV5oP06,0*12
!AIVDM,1,1,,A,13EbpMWP00P0Q2>F>P1iewvH2<0;,0*5D
$IIMWV,072.33,T,006.15,N,A*3C
$IIHDM,030,M*3F
$IIDBT,074.9,f,022.47,M,,F*06
$IIVHW,025.8,T,030,M,003.4,N,006.2,K*44
$IIMTW,040.0,C*27
$IIRSA,000,A,,V*67
$GPGLL,3851.52591,N,00007.91197,E,103113.00,A,D*68
!AIVDO,1,1,,,B3GQ34P09`09b85Shkd@?wVUoP06,0*5C
!AIVDM,1,1,,B,1018lEWP0000QinF>H4h0?vH1hHP,0*49
!AIVDM,1,1,,B,B3GQE6P00H08DM5S`mp5;wW5oP06,0*11
$IIMWV,070.41,T,005.30,N,A*3F
$IIDBT,074.7,f,022.41,M,,F*0E
$IIRSA,000,A,,V*67
$IIVHW,026.0,T,030,M,002.8,N,005.1,K*42
$IIMTW,040.0,C*27
$IIRSA,000,A,,V*67
$GPGLL,3851.52685,N,00007.91254,E,103114.00,A,D*65
!AIVDO,1,1,,,B3GQ34P09809b:UShlD@GwW5oP06,0*58
$IIMWV,041.5,R,007.5,N,A*3F
$GPGGA,103115.00,3851.52777,N,00007.91312,E,2,07,1.27,-1.0,M,49.1,M,,0000*7B
$IIHDM,029,M*37
$IIVHW,025.9,T,029,M,002.8,N,005.1,K*40
$GPGLL,3851.52777,N,00007.91312,E,103115.00,A,D*6B
!AIVDM,1,1,,A,177KOM0029P4Et2FuIFGMV0`0@97,0*7C
$IIHDM,030,M*3F
$GPRMC,103116.00,A,3851.52872,N,00007.91370,E,3.894,25.06,230219,,,D*5D
!AIVDO,1,1,,,B3GQ34P09H09b=UShlp@CwWUoP06,0*7F
!AIVDM,1,1,,A,D028j:B<Tffp,0*52
$IIMWV,056,R,007.1,N,A*26
$IIDBT,075.4,f,022.62,M,,F*0D
$IIRSA,000,A,,V*67
$IIVHW,025.0,T,030,M,003.2,N,005.9,K*42
$IIMTW,040.0,C*27
$IIHDM,030,M*3F
$GPGLL,3851.52872,N,00007.91370,E,103116.00,A,D*66
!AIVDO,1,1,,,B3GQ34P09p09b@UShmL?gw`5oP06,0*0B
$IIMWV,061.48,T,005.10,N,A*34
$IIDBT,075.4,f,022.62,M,,F*0D
$IIVHW,026.8,T,030,M,002.8,N,005.1,K*4A
$IIMTW,040.0,C*27
$IIHDM,030,M*3F
$PNKEP,03,50.0,117.5,0.0*5A
!AIVDM,1,1,,A,4028j:Qv<cbOAOvPl2Fl:M1005At,0*37
$IIRSA,000,A,,V*67
$IIMWV,071.66,T,005.81,N,A*31
$IIDBT,075.4,f,022.62,M,,F*0D
$GPGGA,103118.00,3851.53061,N,00007.91488,E,2,07,1.27,-1.2,M,49.1,M,,0000*71
$IIMTW,040.0,C*27
$IIHDM,029,M*37
!AIVDO,1,1,,,B3GQ34P09`09bFUShn`>owa5oP06,0*3A
!AIVDM,1,1,,B,13cecw002c02URdF?>8Q50nT0@;0,0*6F
$GPRMC,103119.00,A,3851.53156,N,00007.91547,E,3.765,25.24,230219,,,D*5F
$IIRSA,000,A,,V*67
$IIMWV,047.5,R,007.1,N,A*3D
$IIVHW,025.2,T,029,M,002.6,N,004.8,K*4D
$IIHDM,029,M*37
$IIMTW,040.0,C*27
$GPGGA,103119.00,3851.53156,N,00007.91547,E,2,07,1.27,-1.1,M,49.1,M,,0000*74
$PNKEP,03,50.0,90.9,0.0*68
$GPRMC,103120.00,A,3851.53248,N,00007.91606,E,3.700,25.37,230219,,,D*5E
!AIVDM,1,1,,A,4028jJQv<cbOCOvgcDF7LPg020S:,0*36
$IIRSA,000,A,,V*67
$IIMWV,047,R,007.0,N,A*27
$IIVHW,025.3,T,029,M,003.3,N,006.1,K*43
$IIMTW,040.0,C*27
$IIHDM,029,M*37
$PNKEP,03,50.0,111.9,0.0*50
$GPRMC,103121.00,A,3851.53342,N,00007.91663,E,3.692,25.42,230219,,,D*5F
$IIMWV,049.5,R,006.8,N,A*3B
$IIHDM,029,M*37
$IIDBT,077.5,f,023.25,M,,F*0C
$IIVHW,025.4,T,029,M,002.9,N,005.3,K*4E
$IIMTW,040.0,C*27
$IIRSA,000,A,,V*67
!AIVDO,1,1,,,B3GQ34P09H09bO5ShpH?swbUoP06,0*33
!AIVDM,1,1,,A,4028jM1v<cbOE0097pFsvOw02@<k,0*6F
$GPRMC,103122.00,A,3851.53438,N,00007.91717,E,3.787,24.68,230219,,,D*58
$IIMWV,047,R,007.0,N,A*27
$IIRSA,000,A,,V*67
$IIVHW,024.6,T,029,M,003.1,N,005.7,K*40
$IIMTW,040.0,C*27
$IIHDM,029,M*37
$GPGGA,103122.00,3851.53438,N,00007.91717,E,2,07,1.27,-1.1,M,49.1,M,,0000*76
!AIVDO,1,1,,B,B3GQ34P09`09bR5Shq0?Owc5oP06,0*60
!AIVDM,1,1,,A,13Ef2R000000Qw<F>NodnD4d0<1R,0*55
!AIVDM,1,1,,B,13EbpMWP00P0Q2FF>P1@0?vd2D0;,0*46
$IIMWV,077.41,T,005.41,N,A*3E
$IIHDM,029,M*37
!AIVDM,1,1,,B,D028jJQM`N?b<`O6D0,4*41
$IIVHW,024.6,T,029,M,002.7,N,004.9,K*48
$IIMTW,040.0,C*27
$GPRMC,103123.00,A,3851.53533,N,00007.91770,E,3.753,23.20,230219,,,D*50
$IIHDM,029,M*37
$IIMWV,062.35,T,005.75,N,A*3E
$PNKEP,03,50.0,94.4,0.0*61
$IIRSA,000,A,,V*67
!AIVDO,1,1,,,B3GQ34P09`09bTUShqT>SwcUoP06,0*5D
!AIVDM,1,1,,A,H3GLl@TTC=D5JEf51qmop01@3130,0*5B
$IIVHW,023.2,T,029,M,002.8,N,005.1,K*4D
$GPRMC,103124.00,A,3851.53629,N,00007.91825,E,3.697,24.00,230219,,,D*5C
$IIRSA,000,A,,V*67
$IIMWV,076.47,T,005.46,N,A*3E
$IIMTW,040.0,C*27
!AIVDO,1,1,,,B3GQ34P09H09bWUShr<?3wd5oP06,0*1B
$IIRSA,000,A,,V*67
$IIVHW,024.0,T,029,M,002.9,N,005.3,K*4B
$IIVHW,024.3,T,029,M,002.9,N,005.3,K*48
!AIVDM,1,1,,A,B3GQ3vP00`08oV5SU:haCwd5oP06,0*59
$IIHDM,028,M*36
$PNKEP,03,50.0,121.7,0.0*5D
!AIVDO,1,1,,,B3GQ34P09H09bb5Shrh?CwdUoP06,0*0A
!AIVDM,1,1,,B,D028j:B<Tffp,0*51
!AIVDM,1,1,,B,4028j5iv<cbOJww0L@FK3GA02<2I,0*12
$IIMWV,042,R,007.4,N,A*26
$IIRSA,000,A,,V*67
$IIVHW,023.8,T,028,M,003.3,N,006.1,K*4F
$IIMTW,040.0,C*27
$GPGLL,3851.53816,N,00007.91935,E,103126.00,A,D*6D
$IIMWV,083.51,T,005.87,N,A*3E
$IIHDM,028,M*36
$PNKEP,03,50.0,111.9,0.0*50
$IIDBT,078.8,f,023.64,M,,F*0B
$IIHDM,028,M*36
$GPGGA,103127.00,3851.53911,N,00007.91991,E,2,07,1.27,-1.2,M,49.1,M,,0000*76
$IIVHW,024.2,T,028,M,002.9,N,005.3,K*48
$IIMTW,040.0,C*27
$IIRSA,000,A,,V*67
$IIMWV,044.5,R,006.9,N,A*37
$GPRMC,103128.00,A,3851.54001,N,00007.92048,E,3.602,25.14,230219,,,D*53
!AIVDM,1,1,,A,B3l92=h04@09m2USi1QNgweUkP06,0*2B
!AIVDM,1,1,,B,D028j:R8Tffp,0*45
$PNKEP,03,50.0,121.7,0.0*5D
$IIHDM,028,M*36
$IIVHW,025.1,T,028,M,003.0,N,005.5,K*44
$GPGLL,3851.54001,N,00007.92048,E,103128.00,A,D*6A
$IIMTW,040.0,C*27
$IIMWV,064.83,T,005.50,N,A*32
$IIHDM,028,M*36
$PNKEP,03,50.0,104.9,0.0*54
$GPRMC,103129.00,A,3851.54094,N,00007.92106,E,3.663,22.88,230219,,,D*50
$IIDBT,077.1,f,023.13,M,,F*0D
$IIHDM,028,M*36
$IIVHW,022.8,T,028,M,002.9,N,005.3,K*44
$IIMTW,040.0,C*27
$IIMWV,046.5,R,007.0,N,A*3D
$IIRSA,000,A,,V*67
$GPRMC,103130.00,A,3851.54190,N,00007.92162,E,3.673,24.15,230219,,,D*5C
!AIVDM,1,1,,B,B3Ece5000808<E5SaPf7OwfUoP06,0*6F
$PNKEP,03,50.0,121.7,0.0*5D
$IIVHW,024.1,T,028,M,002.8,N,005.1,K*48
$IIHDM,028,M*36
$IIMTW,040.0,C*27
$IIMTW,040.0,C*27
$IIMWV,052.5,R,007.1,N,A*39
$IIRSA,000,A,,V*67
!AIVDO,1,1,,,B3GQ34P09H09bp5Shud?;wg5oP06,0*08
$GPGGA,103131.00,3851.54285,N,00007.92217,E,2,06,1.49,-1.4,M,49.1,M,,0000*79
!AIVDM,1,1,,A,13EbpMWP00P0Q2HF>P100?vv20SQ,0*54
$IIDBT,079.3,f,023.79,M,,F*0D
$IIVHW,023.8,T,028,M,003.0,N,005.5,K*4B
$IIMTW,040.0,C*27
$IIRSA,000,A,,V*67
$IIMWV,044,R,006.9,N,A*2C
$IIRSA,000,A,,V*67
$GPGLL,3851.54285,N,00007.92217,E,103131.00,A,D*64
!AIVDO,1,1,,,B3GQ34P09809bs5ShvD>wwgUoP06,0*75
!AIVDM,1,1,,B,13Ef2R000100Qw>F>NpTgT5008Bj,0*79
$IIVHW,022.9,T,028,M,002.2,N,004.0,K*4C
$IIMTW,040.0,C*27
$IIHDM,027,M*39
$IIMWV,067.93,T,005.87,N,A*3A
$IIHDM,027,M*39
$GPGLL,3851.54382,N,00007.92266,E,103132.00,A,D*67
!AIVDO,1,1,,,B3GQ34P09`09buUShvp>Gwh5oP06,0*20
$IIDBT,077.9,f,023.37,M,,F*03
$IIVHW,022.8,T,027,M,002.6,N,004.8,K*4E
$IIMTW,040.0,C*27
$IIRSA,000,A,,V*67
!AIVDM,1,1,,B,13ci2L001Q03qqnEvS2rL8A20D33,0*0D
$IIMWV,063.06,T,005.00,N,A*3D
!AIVDO,1,1,,,B3GQ34P09H09c05ShwP>GwhUoP06,0*6D
$IIRSA,000,A,,V*67
$GPGGA,103134.00,3851.54568,N,00007.92371,E,2,07,1.27,-1.3,M,49.1,M,,0000*77
!AIVDM,1,1,,A,13FB780000OwC@DFD3gI:B1405At,0*02
$IIDBT,077.9,f,023.37,M,,F*03
$IIVHW,023.9,T,028,M,002.7,N,004.9,K*41
$IIHDM,027,M*39
$IIMWV,068.32,T,005.43,N,A*36
$IIMTW,040.0,C*27
!AIVDO,1,1,,,B3GQ34P09809c2USi04?3wi5oP06,0*49
$GPGGA,103135.00,3851.54658,N,00007.92421,E,2,07,1.49,-1.4,M,49.1,M,,0000*7B
$PNKEP,03,50.0,113.3,0.0*58
$IIVHW,022.7,T,027,M,002.8,N,005.1,K*47
$IIMWV,071.90,T,005.27,N,A*34
$IIHDM,027,M*39
$IIMTW,040.0,C*27
$GPGLL,3851.54658,N,00007.92421,E,103135.00,A,D*67
$GPGGA,103136.00,3851.54750,N,00007.92466,E,2,07,1.26,-1.3,M,49.1,M,,0000*7C
!AIVDO,1,1,,,B3GQ34P08p09c55Si0`>?wiUoP06,0*5E
!AIVDM,1,1,,A,4028j:Av<cbOS00gC2F:4nQ000S:,0*56
$IIDBT,078.5,f,023.55,M,,F*04
$IIVHW,023.5,T,027,M,002.6,N,004.8,K*42
$IIMTW,040.0,C*27
$IIMWV,047.5,R,007.2,N,A*3E
$IIRSA,000,A,,V*67
$GPRMC,103137.00,A,3851.54844,N,00007.92510,E,3.663,21.42,230219,,,D*5C
$IIHDM,027,M*39
$PNKEP,03,50.0,90.9,0.0*68
$IIVHW,021.4,T,027,M,002.8,N,005.1,K*47
$IIMTW,040.0,C*27
$IIMWV,059,R,006.5,N,A*2C
$IIHDM,027,M*39
$GPGLL,3851.54844,N,00007.92510,E,103137.00,A,D*65
!AIVDM,1,1,,B,B343?tP00008`FUSUDP03wjUCP06,0*4F
$IIHDM,027,M*39
$PNKEP,03,50.0,94.4,0.0*61
$GPGGA,103138.00,3851.54939,N,00007.92547,E,2,07,1.26,-1.0,M,49.1,M,,0000*72
!AIVDO,1,1,,,B3GQ34P09H09c9USi1h=Kwk5oP06,0*17
$IIMWV,066.61,T,005.72,N,A*3C
$IIMTW,040.0,C*27
$IIHDM,027,M*39
$GPGLL,3851.54939,N,00007.92547,E,103138.00,A,D*63
$GPGGA,103139.00,3851.55032,N,00007.92595,E,2,07,1.26,-1.0,M,49.1,M,,0000*7F
$IIHDM,027,M*39
$PNKEP,03,50.0,97.9,0.0*6F
$IIVHW,021.5,T,027,M,003.2,N,005.9,K*45
$IIMWV,052,R,006.9,N,A*2B
$IIHDM,027,M*39
$IIMTW,040.0,C*27
$GPGLL,3851.55032,N,00007.92595,E,103139.00,A,D*6E
$IIHDM,027,M*39
$PNKEP,03,50.0,111.9,0.0*50
!AIVDO,1,1,,,B3GQ34P09809c>5Si2t=Owl5oP06,0*1C
$IIDBT,078.2,f,023.46,M,,F*01
$IIMWV,048.5,R,007.2,N,A*31
$IIVHW,020.8,T,027,M,002.8,N,005.1,K*4A
$IIMTW,040.0,C*27
$IIRSA,001,A,,V*66
$GPRMC,103141.00,A,3851.55222,N,00007.92693,E,3.608,21.19,230219,,,D*5D
$IIHDM,026,M*38
$IIMWV,079.13,T,005.90,N,A*3B
$IIDBT,078.3,f,023.49,M,,F*0F
$GPGLL,3851.55222,N,00007.92693,E,103141.00,A,D*67
$IIVHW,021.1,T,026,M,003.0,N,005.5,K*4E
$IIMTW,040.0,C*27
$IIRSA,001,A,,V*66
!AIVDM,1,1,,A,4028jM1v<cbOa0097tFsvPg02@HQ,0*0E
$GPGGA,103142.00,3851.55316,N,00007.92740,E,2,07,1.26,-1.1,M,49.1,M,,0000*7D
$PNKEP,03,50.0,104.9,0.0*54
$IIRSA,001,A,,V*66
$IIMWV,046.5,R,007.2,N,A*3F
$IIVHW,020.7,T,027,M,002.8,N,005.1,K*45
$IIMTW,040.0,C*27
$IIRSA,001,A,,V*66
$GPRMC,103143.00,A,3851.55411,N,00007.92788,E,3.618,20.96,230219,,,D*55
!AIVDM,1,1,,B,13cecw002c02UotF?B014hoD0D18,0*18
!AIVDM,1,1,,B,13EdA8WP00P0PtlF>Oi00?wF2HI@,0*73
!AIVDO,1,1,,,B3GQ34P09809cE5Si4h=3wmUoP06,0*60
$IIMWV,086.14,T,005.90,N,A*3C
$IIHDM,027,M*39
$IIDBT,077.7,f,023.31,M,,F*0B
$IIVHW,020.9,T,027,M,002.9,N,005.3,K*48
$IIMTW,040.0,C*27
$IIHDM,027,M*39
$GPRMC,103144.00,A,3851.55506,N,00007.92832,E,3.677,20.94,230219,,,D*50
!AIVDM,1,1,,B,13FB780000OwC@JFD3fa:B1H0D3D,0*69
$IIMWV,048,R,007.4,N,A*2C
$IIDBT,077.7,f,023.31,M,,F*0B
!AIVDO,1,1,,,B3GQ34P09809cGUSi5D=;wn5oP06,0*44
$IIVHW,020.9,T,027,M,002.7,N,004.9,K*4D
$IIRSA,001,A,,V*66
$IIMTW,040.0,C*27
!AIVDM,1,1,,B,177KOM0029P4EkDFuE77LmwR0<2P,0*44
$GPRMC,103145.00,A,3851.55602,N,00007.92878,E,3.704,20.30,230219,,,D*53
!AIVDO,1,1,,,B3GQ34P09H09cIUSi5t=7wnUoP06,0*66
$IIMWV,056,R,007.0,N,A*27
$PNKEP,03,50.0,94.4,0.0*61
$IIVHW,020.3,T,027,M,002.8,N,005.1,K*41
$IIHDM,027,M*39
$IIMTW,040.0,C*27
!AIVDM,1,1,,A,13EaRLWP0000Q5JF>PP81gwJ0HJo,0*41
!AIVDM,1,1,,B,4028j:Av<cbOe00gC0F:4nQ000S:,0*61
$IIHDM,027,M*39
$IIMWV,075.25,T,005.74,N,A*38
$IIDBT,077.6,f,023.28,M,,F*02
$IIVHW,020.3,T,027,M,002.7,N,004.9,K*47
$IIHDM,027,M*39
$IIMTW,040.0,C*27
$GPGGA,103146.00,3851.55695,N,00007.92927,E,2,07,1.26,-1.1,M,49.1,M,,0000*78
$IIHDM,027,M*39
$IIMWV,068.90,T,005.98,N,A*38
$GPRMC,103147.00,A,3851.55789,N,00007.92974,E,3.651,21.18,230219,,,D*54
!AIVDO,1,1,,,B3GQ34P09H09cNUSi78<gwo5oP06,0*1F
$IIVHW,021.1,T,027,M,002.9,N,005.3,K*41
$IIVHW,021.1,T,027,M,002.8,N,005.1,K*42
$IIMTW,040.0,C*27
$IIRSA,001,A,,V*66
$GPRMC,103148.00,A,3851.55883,N,00007.93021,E,3.655,20.93,230219,,,D*50
$IIHDM,027,M*39
!AIVDM,1,1,,B,4028j:Qv<cbOgOvPl:Fl:M100L3A,0*24
$IIMWV,053,R,007.0,N,A*22
$IIVHW,020.9,T,027,M,002.9,N,005.3,K*48
$IIVHW,020.9,T,027,M,002.9,N,005.3,K*48
$IIMTW,040.0,C*27
$IIRSA,001,A,,V*66
$GPGLL,3851.55883,N,00007.93021,E,103148.00,A,D*61
$IIRSA,001,A,,V*66
$IIMWV,045,R,007.4,N,A*21
$GPRMC,103149.00,A,3851.55973,N,00007.93074,E,3.682,21.97,230219,,,D*50
!AIVDO,1,1,,,B3GQ34P09H09cUUSi8l=kwpUoP06,0*2D
$PNKEP,03,50.0,101.4,0.0*5C
$IIVHW,021.9,T,028,M,002.8,N,005.1,K*45
$IIRSA,001,A,,V*66
$IIMTW,040.0,C*27
$IIMWV,052,R,007.2,N,A*21
$IIRSA,001,A,,V*66
$GPRMC,103150.00,A,3851.56072,N,00007.93119,E,3.830,21.16,230219,,,D*57
$IIDBT,077.1,f,023.13,M,,F*0D
$PNKEP,03,50.0,115.4,0.0*59
$IIMTW,040.0,C*27
!AIVDO,1,1,,,B3GQ34P09`09c`5Si9L=Cwq5oP06,0*38
$IIHDM,028,M*36
$GPRMC,103151.00,A,3851.56166,N,00007.93168,E,3.587,21.98,230219,,,D*53
$IIMWV,070.53,T,005.24,N,A*39
$IIHDM,028,M*36
$IIDBT,077.3,f,023.19,M,,F*05
$IIVHW,021.9,T,028,M,002.7,N,004.9,K*43
$PNKEP,03,50.0,113.3,0.0*58
$IIHDM,028,M*36
$GPGGA,103151.00,3851.56166,N,00007.93168,E,2,07,1.26,-1.3,M,49.1,M,,0000*76
!AIVDM,1,1,,B,B3aC5K000008f9USUh403wqUkP06,0*3D
!AIVDM,1,1,,B,4028jM1v<cbOk0097vFsvQ?02@NH,0*43
$IIMWV,043.5,R,007.4,N,A*3C
$IIRSA,001,A,,V*66
$IIVHW,021.9,T,028,M,003.2,N,005.9,K*46
$IIVHW,021.9,T,028,M,003.2,N,005.9,K*46
$IIMTW,040.0,C*27
$GPGGA,103152.00,3851.56260,N,00007.93216,E,2,07,1.26,-1.3,M,49.1,M,,0000*7A
$IIRSA,001,A,,V*66
!AIVDO,1,1,,A,B3GQ34P09H09ce5Si:`=Owr5oP06,0*74
$IIMWV,084.37,T,005.58,N,A*3B
$IIHDM,029,M*37
$IIDBT,077.1,f,023.13,M,,F*0D
$IIVHW,021.5,T,029,M,002.8,N,005.1,K*48
$IIMTW,040.0,C*27
$GPRMC,103153.00,A,3851.56354,N,00007.93267,E,3.673,22.31,230219,,,D*56
!AIVDO,1,1,,,B3GQ34P09H09cgUSi;<=wwrUoP06,0*52
!AIVDM,1,1,,B,H3GQ9:lTCBD6fEF51kkiq02H1150,0*36
$IIRSA,001,A,,V*66
$IIMWV,063.08,T,005.37,N,A*37
$IIHDM,029,M*37
$IIDBT,077.2,f,023.16,M,,F*0B
